Timestamp,Accel_X,Accel_Y,Accel_Z,Roll,Pitch,Yaw,GravAcc_X,GravAcc_Y,GravAcc_Z,UserAcc_X,UserAcc_Y,UserAcc_Z,RotRate_X,RotRate_Y,RotRate_Z,MagHeading,TrueHeading,HeadingAccuracy,Lat,Long,LocAccuracy,Course,Speed,Altitude
541376001.555076,0.000000,0.000000,0.000000,0.000000,0.000000,0.000000,0.000000,0.000000,0.000000,0.000000,0.000000,0.000000,0.000000,0.000000,0.000000,0.000000,0.000000,0.000000,0.000000,0.000000,0.000000,0.000000,0.000000,0.000000
541376001.557947,0.000000,0.000000,0.000000,0.000000,0.000000,0.000000,0.000000,0.000000,0.000000,0.000000,0.000000,0.000000,0.000000,0.000000,0.000000,0.000000,0.000000,0.000000,0.000000,0.000000,0.000000,0.000000,0.000000,0.000000
541376001.570014,-0.980576,-0.003387,0.045227,0.000000,0.000000,0.000000,0.000000,0.000000,0.000000,0.000000,0.000000,0.000000,0.000000,0.000000,0.000000,0.000000,0.000000,0.000000,0.000000,0.000000,0.000000,0.000000,0.000000,0.000000
541376001.578606,-1.002747,-0.009811,0.015976,0.000000,0.000000,0.000000,0.000000,0.000000,0.000000,0.000000,0.000000,0.000000,0.000000,0.000000,0.000000,0.000000,0.000000,0.000000,0.000000,0.000000,0.000000,0.000000,0.000000,0.000000
541376001.588616,-1.018768,-0.008606,-0.001694,0.000000,0.000000,0.000000,0.000000,0.000000,0.000000,0.000000,0.000000,0.000000,0.000000,0.000000,0.000000,0.000000,0.000000,0.000000,38.934737,-77.044019,25.420451,-1.000000,-1.000000,57.419403
541376001.598040,-1.021408,-0.003265,-0.017120,0.000000,0.000000,0.000000,0.000000,0.000000,0.000000,0.000000,0.000000,0.000000,0.000000,0.000000,0.000000,0.000000,0.000000,0.000000,38.934737,-77.044019,25.420451,-1.000000,-1.000000,57.419403
541376001.608482,-1.022766,-0.005005,-0.013428,0.000000,0.000000,0.000000,0.000000,0.000000,0.000000,0.000000,0.000000,0.000000,0.000000,0.000000,0.000000,0.000000,0.000000,0.000000,38.934858,-77.044114,124.879544,-1.000000,-1.000000,63.740597
541376001.618947,-1.017395,-0.005264,0.001892,0.000000,0.000000,0.000000,0.000000,0.000000,0.000000,0.000000,0.000000,0.000000,0.000000,0.000000,0.000000,0.000000,0.000000,0.000000,38.934858,-77.044114,124.879544,-1.000000,-1.000000,63.740597
541376001.628583,-1.008270,-0.005432,0.018143,0.000000,0.000000,0.000000,0.000000,0.000000,0.000000,0.000000,0.000000,0.000000,0.000000,0.000000,0.000000,0.000000,0.000000,0.000000,38.934858,-77.044114,124.879544,-1.000000,-1.000000,63.740597
541376001.638552,-1.004364,-0.011810,0.030029,0.000000,0.000000,0.000000,0.000000,0.000000,0.000000,0.000000,0.000000,0.000000,0.000000,0.000000,0.000000,0.000000,0.000000,0.000000,38.934858,-77.044114,124.879544,-1.000000,-1.000000,63.740597
541376001.648548,-0.999741,-0.014084,0.030762,0.000000,0.000000,0.000000,0.000000,0.000000,0.000000,0.000000,0.000000,0.000000,0.000000,0.000000,0.000000,0.000000,0.000000,0.000000,38.934858,-77.044114,124.879544,-1.000000,-1.000000,63.740597
541376001.657955,-0.998779,-0.013504,0.031387,0.000000,0.000000,0.000000,0.000000,0.000000,0.000000,0.000000,0.000000,0.000000,0.000000,0.000000,0.000000,0.000000,0.000000,0.000000,38.934858,-77.044114,124.879544,-1.000000,-1.000000,63.740597
541376001.668536,-1.005447,-0.014099,0.024155,0.000000,0.000000,0.000000,0.000000,0.000000,0.000000,0.000000,0.000000,0.000000,0.000000,0.000000,0.000000,0.000000,0.000000,0.000000,38.934858,-77.044114,124.879544,-1.000000,-1.000000,63.740597
541376001.678042,-1.012772,-0.011383,0.011993,0.000000,0.000000,0.000000,0.000000,0.000000,0.000000,0.000000,0.000000,0.000000,0.000000,0.000000,0.000000,0.000000,0.000000,0.000000,38.934855,-77.044114,2000.000000,-1.000000,-1.000000,63.740597
541376001.688540,-1.013840,-0.010864,0.002701,0.000000,0.000000,0.000000,0.000000,0.000000,0.000000,0.000000,0.000000,0.000000,0.000000,0.000000,0.000000,0.000000,0.000000,0.000000,38.934855,-77.044114,2000.000000,-1.000000,-1.000000,63.740597
541376001.698512,-1.011444,-0.006973,0.004593,0.000000,0.000000,0.000000,0.000000,0.000000,0.000000,0.000000,0.000000,0.000000,0.000000,0.000000,0.000000,0.000000,0.000000,0.000000,38.934855,-77.044114,2000.000000,-1.000000,-1.000000,63.740597
541376001.708456,-1.007126,-0.003021,0.011932,-1.587344,0.007331,0.007453,-0.999836,-0.007331,0.016546,-0.007290,0.004309,-0.004614,-0.023301,-0.078162,-0.011298,0.000000,0.000000,0.000000,38.934855,-77.044114,2000.000000,-1.000000,-1.000000,63.740597
541376001.718086,-0.999512,-0.005417,0.024292,-1.588218,0.007450,0.007377,-0.999821,-0.007450,0.017420,0.000309,0.002033,0.006872,-0.002951,-0.090819,-0.013335,0.000000,0.000000,0.000000,38.934855,-77.044114,2000.000000,-1.000000,-1.000000,63.740597
541376001.727983,-0.989075,-0.005447,0.028671,-1.589148,0.007653,0.007362,-0.999802,-0.007653,0.018350,0.010728,0.002206,0.010321,-0.003963,-0.092966,-0.022950,0.000000,0.000000,0.000000,38.934855,-77.044114,2000.000000,-1.000000,-1.000000,63.740597
541376001.738496,-0.990906,-0.010284,0.030716,-1.589911,0.007910,0.007124,-0.999786,-0.007910,0.019113,0.008880,-0.002374,0.011603,-0.033942,-0.068668,-0.025228,213.275681,202.438354,50.000000,38.934855,-77.044114,2000.000000,-1.000000,-1.000000,63.740597
541376001.748484,-0.995163,-0.014038,0.031738,-1.590341,0.008107,0.006507,-0.999776,-0.008107,0.019543,0.004613,-0.005931,0.012196,-0.072568,-0.033761,-0.014735,213.275681,202.438354,50.000000,38.934855,-77.044114,2000.000000,-1.000000,-1.000000,63.740597
541376001.758496,-0.998871,-0.013229,0.030121,-1.590438,0.008118,0.005643,-0.999774,-0.008117,0.019640,0.000903,-0.005112,0.010481,-0.088779,-0.006168,0.004410,213.275681,202.438354,50.000000,38.934855,-77.044114,2000.000000,-1.000000,-1.000000,63.740597
541376001.768568,-0.998795,-0.010178,0.031616,-1.590499,0.008062,0.004841,-0.999774,-0.008062,0.019700,0.000979,-0.002116,0.011916,-0.074890,-0.009282,0.006614,212.875565,202.038239,40.000000,38.934855,-77.044114,2000.000000,-1.000000,-1.000000,63.740597
541376001.778492,-1.000671,-0.005798,0.029724,-1.590676,0.008022,0.004251,-0.999770,-0.008022,0.019878,-0.000901,0.002224,0.009846,-0.053487,-0.018742,0.005650,212.875565,202.038239,40.000000,38.934855,-77.044114,2000.000000,-1.000000,-1.000000,63.740597
541376001.788486,-1.011093,-0.004044,0.016144,-1.590871,0.007884,0.003775,-0.999767,-0.007884,0.020073,-0.011326,0.003840,-0.003929,-0.047143,-0.018690,0.018494,212.949692,202.112366,40.000000,38.934855,-77.044114,2000.000000,-1.000000,-1.000000,63.740597
541376001.798486,-1.016083,-0.004684,0.003860,-1.591028,0.007660,0.003291,-0.999766,-0.007660,0.020230,-0.016317,0.002975,-0.016369,-0.047181,-0.015491,0.023833,212.949692,202.112366,40.000000,38.934855,-77.044114,2000.000000,-1.000000,-1.000000,63.740597
541376001.808495,-1.005844,-0.002243,0.000931,-1.591255,0.007504,0.002884,-0.999763,-0.007503,0.020457,-0.006082,0.005260,-0.019526,-0.036411,-0.027147,0.014275,212.949692,202.112366,40.000000,38.934855,-77.044114,2000.000000,-1.000000,-1.000000,63.740597
541376001.818525,-0.996552,-0.004822,0.008698,-1.591653,0.007364,0.002677,-0.999755,-0.007364,0.020855,0.003204,0.002542,-0.012157,-0.014990,-0.044050,0.014377,212.946457,202.109131,35.000000,38.934855,-77.044114,2000.000000,-1.000000,-1.000000,63.740597
541376001.828493,-0.992020,-0.004868,0.016495,-1.592072,0.007210,0.002620,-0.999748,-0.007210,0.021273,0.007728,0.002342,-0.004779,-0.004321,-0.040802,0.015499,212.946457,202.109131,35.000000,38.934855,-77.044114,2000.000000,-1.000000,-1.000000,63.740597
541376001.838496,-0.989227,-0.003952,0.016495,-1.592465,0.007065,0.002611,-0.999740,-0.007065,0.021667,0.010513,0.003113,-0.005172,-0.000036,-0.040783,0.013385,212.946457,202.109131,35.000000,38.934855,-77.044114,2000.000000,-1.000000,-1.000000,63.740597
541376001.848090,-0.984497,-0.005783,0.017624,-1.592981,0.006967,0.002630,-0.999730,-0.006967,0.022183,0.015233,0.001184,-0.004559,0.003242,-0.055662,0.008059,212.895325,202.057999,35.000000,38.934855,-77.044114,2000.000000,-1.000000,-1.000000,63.740597
541376001.858490,-0.984116,-0.005402,0.018860,-1.593589,0.006906,0.002715,-0.999717,-0.006906,0.022790,0.015219,0.001123,-0.005166,0.011811,-0.058810,0.005965,212.895325,202.057999,35.000000,38.934855,-77.044114,2000.000000,-1.000000,-1.000000,63.740597
541376001.868474,-0.987274,-0.004822,0.025421,-1.589159,0.005011,0.002889,-0.999819,-0.005011,0.018361,0.012545,0.000189,0.007060,0.023521,-0.042800,0.004960,212.950851,202.113525,35.000000,38.934855,-77.044114,2000.000000,-1.000000,-1.000000,63.740597
541376001.878468,-0.984421,-0.006042,0.027039,-1.583669,0.004833,0.003255,-0.999905,-0.004833,0.012873,0.015485,-0.001209,0.014166,0.043899,-0.060777,0.000786,212.950851,202.113525,35.000000,38.934855,-77.044114,2000.000000,-1.000000,-1.000000,63.740597
541376001.888591,-0.994461,-0.007614,0.023895,-1.580664,0.003995,0.003699,-0.999943,-0.003995,0.009868,0.005482,-0.003619,0.014028,0.044857,-0.050115,0.015741,212.950851,202.113525,35.000000,38.934855,-77.044114,2000.000000,-1.000000,-1.000000,63.740597
541376001.898506,-1.008835,-0.006882,0.016525,-1.580665,0.003875,0.004036,-0.999944,-0.003875,0.009869,-0.008891,-0.003007,0.006656,0.029710,-0.024640,0.037026,212.943207,202.105881,35.000000,38.934855,-77.044114,2000.000000,-1.000000,-1.000000,63.740597
541376001.908516,-1.001068,-0.003769,0.010117,-1.582222,0.003807,0.004300,-0.999928,-0.003807,0.011426,-0.001141,0.000038,-0.001309,0.026619,-0.038502,0.023127,212.943207,202.105881,35.000000,38.934855,-77.044114,2000.000000,-1.000000,-1.000000,63.740597
541376001.918608,-0.992249,-0.000153,0.015442,-1.583416,0.003642,0.004599,-0.999914,-0.003642,0.012620,0.007665,0.003490,0.002822,0.030910,-0.040610,0.021013,212.806503,201.969177,25.000000,38.934855,-77.044114,2000.000000,-1.000000,-1.000000,63.740597
541376001.928610,-0.996170,0.000259,0.026855,-1.584444,0.003694,0.005004,-0.999900,-0.003694,0.013647,0.003730,0.003953,0.013208,0.043670,-0.030962,0.027485,212.806503,201.969177,25.000000,38.934855,-77.044114,2000.000000,-1.000000,-1.000000,63.740597
541376001.940392,-0.996170,0.000259,0.026855,-1.584596,0.003556,0.005250,-0.999898,-0.003556,0.013799,0.003728,0.003816,0.013056,0.049014,-0.029873,0.026444,212.806503,201.969177,25.000000,38.934855,-77.044114,2000.000000,-1.000000,-1.000000,63.740597
541376001.948226,-0.991074,0.002014,0.032303,-1.585500,0.003634,0.005710,-0.999885,-0.003634,0.014703,0.008811,0.005648,0.017600,0.042675,-0.025676,0.010399,212.667877,201.830551,25.000000,38.934855,-77.044114,2000.000000,-1.000000,-1.000000,63.740597
541376001.958530,-0.983688,-0.004562,0.038696,-1.587958,0.004027,0.006211,-0.999844,-0.004027,0.017161,0.016156,-0.000535,0.021535,0.026680,-0.006645,-0.006759,212.667877,201.830551,25.000000,38.934855,-77.044114,2000.000000,-1.000000,-1.000000,63.740597
541376001.968521,-0.996048,-0.004486,0.037323,-1.588679,0.004326,0.006352,-0.999830,-0.004326,0.017882,0.003782,-0.000160,0.019441,0.009554,-0.015225,0.003830,212.614456,201.777130,25.000000,38.934855,-77.044114,2000.000000,-1.000000,-1.000000,63.740597
541376001.978152,-1.010223,-0.002289,0.029572,-1.588892,0.004364,0.006354,-0.999826,-0.004364,0.018094,-0.010397,0.002075,0.011477,-0.001138,-0.040779,0.019785,212.614456,201.777130,25.000000,38.934855,-77.044114,2000.000000,-1.000000,-1.000000,63.740597
541376001.988605,-1.003708,0.001205,0.024902,-1.588800,0.004209,0.006263,-0.999828,-0.004209,0.018003,-0.003879,0.005415,0.006899,-0.009577,-0.054667,0.006927,212.614456,201.777130,25.000000,38.934855,-77.044114,2000.000000,-1.000000,-1.000000,63.740597
541376001.998436,-0.991928,0.000885,0.025986,-1.589108,0.004001,0.006163,-0.999824,-0.004001,0.018311,0.007896,0.004886,0.007675,-0.009522,-0.045120,-0.009085,212.624146,201.786819,25.000000,38.934855,-77.044114,2000.000000,-1.000000,-1.000000,63.740597
541376002.008423,-0.996796,-0.002625,0.034363,-1.590028,0.003786,0.006043,-0.999807,-0.003786,0.019230,0.003012,0.001161,0.015133,-0.012777,-0.037685,-0.003761,212.624146,201.786819,25.000000,38.934855,-77.044114,2000.000000,-1.000000,-1.000000,63.740597
541376002.017678,-0.996796,-0.002625,0.034363,-1.590180,0.003779,0.005989,-0.999804,-0.003779,0.019382,0.003009,0.001154,0.014981,-0.010691,-0.030222,0.001590,212.655472,201.818146,25.000000,38.934855,-77.044114,2000.000000,-1.000000,-1.000000,63.740597
541376002.027693,-1.003555,-0.002594,0.044205,-1.591087,0.003322,0.005946,-0.999788,-0.003322,0.020289,-0.003767,0.000728,0.023916,-0.001207,-0.004635,0.012321,212.655472,201.818146,25.000000,38.934855,-77.044114,2000.000000,-1.000000,-1.000000,63.740597
541376002.038414,-1.001038,0.001297,0.046677,-1.592518,0.002939,0.006131,-0.999759,-0.002939,0.021720,-0.001279,0.004236,0.024957,0.015798,0.019918,0.015615,212.655472,201.818146,25.000000,38.934855,-77.044114,2000.000000,-1.000000,-1.000000,63.740597
541376002.048459,-0.995728,-0.000900,0.039703,-1.593070,0.002858,0.006262,-0.999747,-0.002858,0.022271,0.004019,0.001958,0.017432,0.011496,0.027341,0.016663,212.652710,201.815384,25.000000,38.934855,-77.044114,2000.000000,-1.000000,-1.000000,63.740597
541376002.057439,-0.995728,-0.000900,0.039703,-1.592932,0.002780,0.006280,-0.999750,-0.002780,0.022134,0.004023,0.001879,0.017569,0.004022,0.027300,0.015558,212.652710,201.815384,25.000000,38.934855,-77.044114,2000.000000,-1.000000,-1.000000,63.740597
541376002.068000,-0.989380,-0.001816,0.039749,-1.593013,0.002654,0.006207,-0.999749,-0.002654,0.022215,0.010369,0.000838,0.017535,-0.010905,0.026151,0.010145,212.640427,201.803101,25.000000,38.934855,-77.044114,2000.000000,-1.000000,-1.000000,63.740597
541376002.078484,-0.992233,-0.004303,0.039261,-1.592904,0.002290,0.005872,-0.999752,-0.002290,0.022106,0.007519,-0.002013,0.017155,-0.026893,0.026055,0.002592,212.640427,201.803101,25.000000,38.934855,-77.044114,2000.000000,-1.000000,-1.000000,63.740597
541376002.088845,-1.001144,-0.005707,0.034271,-1.592786,0.002254,0.005580,-0.999755,-0.002254,0.021988,0.007522,-0.002049,0.017273,-0.028966,0.004776,0.002576,212.640427,201.803101,25.000000,38.934855,-77.044114,2000.000000,-1.000000,-1.000000,63.740597
541376002.098492,-1.000168,-0.001648,0.025101,-1.594265,0.002338,0.005321,-0.999721,-0.002338,0.023466,-0.000447,0.000690,0.001634,-0.025674,-0.009044,-0.005953,212.650757,201.813431,25.000000,38.934855,-77.044114,2000.000000,-1.000000,-1.000000,63.740597
541376002.108501,-1.000168,-0.001648,0.025101,-1.594326,0.002365,0.005193,-0.999720,-0.002365,0.023527,-0.000448,0.000717,0.001573,-0.025670,-0.012233,-0.004886,212.650757,201.813431,25.000000,38.934855,-77.044114,2000.000000,-1.000000,-1.000000,63.740597
541376002.118448,-1.004959,-0.004135,0.014984,-1.595506,0.002232,0.004970,-0.999692,-0.002232,0.024707,-0.005267,-0.001904,-0.009723,-0.021391,-0.019649,-0.001664,212.668640,201.831314,25.000000,38.934855,-77.044114,2000.000000,-1.000000,-1.000000,63.740597
541376002.128475,-1.010788,-0.006042,0.014847,-1.596574,0.002137,0.004764,-0.999665,-0.002137,0.025774,-0.011123,-0.003906,-0.010928,-0.020292,-0.026027,-0.003795,212.668640,201.831314,25.000000,38.934855,-77.044114,2000.000000,-1.000000,-1.000000,63.740597
541376002.138837,-1.010071,-0.001602,0.017487,-1.597480,0.002171,0.004629,-0.999641,-0.002171,0.026680,-0.010430,0.000569,-0.009193,-0.011655,-0.046195,-0.009096,212.668640,201.831314,25.000000,38.934855,-77.044114,2000.000000,-1.000000,-1.000000,63.740597
541376002.148383,-1.005310,-0.001556,0.021866,-1.598529,0.002265,0.004527,-0.999612,-0.002265,0.027729,-0.005698,0.000708,-0.005863,-0.011605,-0.061084,-0.010167,212.700745,201.863419,25.000000,38.934855,-77.044114,2000.000000,-1.000000,-1.000000,63.740597
541376002.158660,-0.999786,-0.006317,0.022568,-1.599683,0.002349,0.004386,-0.999580,-0.002349,0.028882,-0.000207,-0.003968,-0.006315,-0.015891,-0.066416,-0.004852,212.700745,201.863419,25.000000,38.934855,-77.044114,2000.000000,-1.000000,-1.000000,63.740597
541376002.168377,-0.998917,-0.010101,0.026581,-1.600684,0.002423,0.004152,-0.999550,-0.002423,0.029883,0.000634,-0.007678,-0.003302,-0.026607,-0.065400,0.000434,212.728165,201.890839,25.000000,38.934855,-77.044114,2000.000000,-1.000000,-1.000000,63.740597
541376002.178343,-0.998932,-0.009567,0.022278,-1.601488,0.002529,0.003810,-0.999526,-0.002529,0.030687,0.000594,-0.007038,-0.008409,-0.037297,-0.065454,0.001448,212.728165,201.890839,25.000000,38.934855,-77.044114,2000.000000,-1.000000,-1.000000,63.740597
541376002.188352,-0.996689,-0.008072,0.022156,-1.601981,0.002547,0.003422,-0.999511,-0.002547,0.031180,0.002822,-0.005524,-0.009024,-0.040462,-0.067608,-0.004974,212.728165,201.890839,25.000000,38.934855,-77.044114,2000.000000,-1.000000,-1.000000,63.740597
541376002.198357,-0.994995,-0.005142,0.025436,-1.602167,0.002698,0.003060,-0.999504,-0.002698,0.031365,0.004509,-0.002444,-0.005929,-0.034032,-0.066517,-0.009213,212.787292,201.949966,25.000000,38.934855,-77.044114,2000.000000,-1.000000,-1.000000,63.740597
541376002.208333,-0.994202,-0.004547,0.028397,-1.602338,0.002934,0.002861,-0.999498,-0.002934,0.031537,0.005296,-0.001613,-0.003140,-0.014775,-0.065361,-0.014455,212.787292,201.949966,25.000000,38.934855,-77.044114,2000.000000,-1.000000,-1.000000,63.740597
541376002.218331,-0.993164,-0.003906,0.030579,-1.602710,0.003062,0.002868,-0.999486,-0.003062,0.031908,0.006322,-0.000844,-0.001329,0.005584,-0.079084,-0.017560,212.812958,201.975632,25.000000,38.934684,-77.044003,65.000000,-1.000000,-1.000000,60.583256
541376002.228346,-0.993546,-0.003464,0.032440,-1.603326,0.003135,0.003088,-0.999466,-0.003135,0.032524,0.005920,-0.000329,-0.000084,0.028021,-0.091716,-0.009978,212.812958,201.975632,25.000000,38.934684,-77.044003,65.000000,-1.000000,-1.000000,60.583256
541376002.238341,-0.999771,-0.004715,0.034561,-1.604096,0.003204,0.003485,-0.999440,-0.003204,0.033293,-0.000331,-0.001511,0.001268,0.041888,-0.106512,0.002899,212.812958,201.975632,25.000000,38.934684,-77.044003,65.000000,-1.000000,-1.000000,60.583256
541376002.248389,-1.004990,-0.005890,0.033829,-1.605099,0.003346,0.003910,-0.999406,-0.003346,0.034296,-0.005584,-0.002544,-0.000467,0.040867,-0.120343,0.001823,212.763931,201.926605,25.000000,38.934684,-77.044003,65.000000,-1.000000,-1.000000,60.583256
541376002.257944,-1.000275,-0.005188,0.027344,-1.606037,0.003481,0.004217,-0.999373,-0.003481,0.035233,-0.000902,-0.001707,-0.007890,0.025924,-0.125738,0.001747,212.763931,201.926605,25.000000,38.934684,-77.044003,65.000000,-1.000000,-1.000000,60.583256
541376002.268369,-1.004684,-0.008850,0.025726,-1.606968,0.003506,0.004306,-0.999339,-0.003506,0.036164,-0.005345,-0.005344,-0.010437,0.003445,-0.126906,0.010176,212.730255,201.892929,25.000000,38.934684,-77.044003,65.000000,-1.000000,-1.000000,60.583256
541376002.278334,-1.009308,-0.008240,0.024582,-1.608024,0.003492,0.004171,-0.999300,-0.003492,0.037219,-0.010008,-0.004747,-0.012637,-0.017872,-0.131283,0.002595,212.730255,201.892929,25.000000,38.934684,-77.044003,65.000000,-1.000000,-1.000000,60.583256
541376002.288368,-1.002640,-0.004837,0.027679,-1.609074,0.003544,0.003944,-0.999260,-0.003544,0.038268,-0.003380,-0.001293,-0.010589,-0.023210,-0.121750,-0.003835,212.730255,201.892929,25.000000,38.934684,-77.044003,65.000000,-1.000000,-1.000000,60.583256
541376002.297581,-0.996384,-0.006546,0.037537,-1.609920,0.003598,0.003755,-0.999227,-0.003598,0.039114,0.002844,-0.002948,-0.001577,-0.017945,-0.094075,-0.004869,212.756332,201.919006,25.000000,38.934684,-77.044003,65.000000,-1.000000,-1.000000,60.583256
541376002.308379,-0.992950,-0.003967,0.045807,-1.610537,0.003699,0.003594,-0.999203,-0.003699,0.039730,0.006252,-0.000268,0.006077,-0.015848,-0.069615,-0.011258,212.756332,201.919006,25.000000,38.934684,-77.044003,65.000000,-1.000000,-1.000000,60.583256
541376002.318297,-0.989944,-0.002914,0.052429,-1.610960,0.003918,0.003517,-0.999185,-0.003918,0.040153,0.009241,0.001003,0.012276,-0.004097,-0.048303,-0.022939,212.773956,201.936630,25.000000,38.934684,-77.044003,65.000000,-1.000000,-1.000000,60.583256
541376002.328284,-0.988495,-0.001465,0.057007,-1.611080,0.004209,0.003577,-0.999179,-0.004209,0.040272,0.010684,0.002744,0.016735,0.007581,-0.019533,-0.025008,212.773956,201.936630,25.000000,38.934684,-77.044003,65.000000,-1.000000,-1.000000,60.583256
541376002.338295,-0.988586,-0.001755,0.058884,-1.610891,0.004467,0.003746,-0.999185,-0.004467,0.040083,0.010599,0.002712,0.018801,0.019284,-0.004583,-0.023878,212.773956,201.936630,25.000000,38.934684,-77.044003,65.000000,-1.000000,-1.000000,60.583256
541376002.348273,-0.982986,-0.006119,0.062576,-1.610579,0.004754,0.004000,-0.999197,-0.004754,0.039772,0.016210,-0.001365,0.022804,0.024581,0.002896,-0.019579,212.778854,201.941528,25.000000,38.934684,-77.044003,65.000000,-1.000000,-1.000000,60.583256
541376002.358271,-0.975937,-0.007126,0.064087,-1.610272,0.004952,0.004218,-0.999208,-0.004952,0.039464,0.023271,-0.002174,0.024622,0.019210,-0.002437,-0.011066,212.778854,201.941528,25.000000,38.934684,-77.044003,65.000000,-1.000000,-1.000000,60.583256
541376002.368268,-0.978699,-0.007767,0.058411,-1.610201,0.004959,0.004335,-0.999211,-0.004959,0.039393,0.020512,-0.002807,0.019017,0.008516,-0.021615,0.001688,212.763199,201.925873,20.000000,38.934684,-77.044003,65.000000,-1.000000,-1.000000,60.583256
541376002.378260,-0.991394,-0.005905,0.052673,-1.610410,0.004893,0.004346,-0.999203,-0.004893,0.039603,0.007809,-0.001012,0.013070,-0.000088,-0.021643,0.012322,212.763199,201.925873,20.000000,38.934684,-77.044003,65.000000,-1.000000,-1.000000,60.583256
541376002.388352,-0.998993,-0.001312,0.046524,-1.610686,0.004736,0.004351,-0.999192,-0.004736,0.039879,0.000199,0.003424,0.006645,0.003084,-0.014180,0.014475,212.763199,201.925873,20.000000,38.934684,-77.044003,65.000000,-1.000000,-1.000000,60.583256
541376002.398266,-0.998108,-0.003159,0.042313,-1.611158,0.004486,0.004503,-0.999175,-0.004486,0.040350,0.001067,0.001327,0.001963,0.021230,-0.026829,0.025239,212.760345,201.923019,20.000000,38.934684,-77.044003,65.000000,-1.000000,-1.000000,60.583256
541376002.408262,-0.997162,-0.002213,0.044006,-1.611819,0.004086,0.004865,-0.999150,-0.004086,0.041011,0.001988,0.001874,0.002995,0.042577,-0.034148,0.033885,212.760345,201.923019,20.000000,38.934684,-77.044003,65.000000,-1.000000,-1.000000,60.583256
541376002.418257,-0.994919,0.000046,0.046097,-1.612454,0.003661,0.005369,-0.999125,-0.003661,0.041645,0.004206,0.003707,0.004451,0.054305,-0.027705,0.035013,212.707932,201.870605,20.000000,38.934684,-77.044003,65.000000,-1.000000,-1.000000,60.583256
541376002.428274,-0.990158,-0.007050,0.052628,-1.613064,0.003412,0.005920,-0.999100,-0.003412,0.042254,0.008942,-0.003638,0.010373,0.055407,-0.020272,0.024343,212.707932,201.870605,20.000000,38.934684,-77.044003,65.000000,-1.000000,-1.000000,60.583256
541376002.438266,-0.985657,-0.009308,0.055817,-1.613610,0.003263,0.006398,-0.999078,-0.003263,0.042801,0.013421,-0.006044,0.013016,0.044728,-0.012892,0.018954,212.707932,201.870605,20.000000,38.934684,-77.044003,65.000000,-1.000000,-1.000000,60.583256
541376002.448052,-0.985947,-0.008652,0.053696,-1.613981,0.003203,0.006740,-0.999062,-0.003203,0.043171,0.013116,-0.005449,0.010525,0.030858,-0.006595,0.011412,212.641357,201.804031,20.000000,38.934684,-77.044003,65.000000,-1.000000,-1.000000,60.583256
541376002.458281,-0.989395,-0.007675,0.048294,-1.614226,0.003138,0.006912,-0.999052,-0.003138,0.043415,0.009657,-0.004537,0.004879,0.013769,-0.008811,0.011327,212.641357,201.804031,20.000000,38.934684,-77.044003,65.000000,-1.000000,-1.000000,60.583256
541376002.468267,-1.002380,-0.005707,0.038757,-1.614516,0.002915,0.006891,-0.999040,-0.002915,0.043706,-0.003341,-0.002792,-0.004949,-0.006511,-0.032298,0.020829,212.623291,201.785965,20.000000,38.934684,-77.044003,65.000000,-1.000000,-1.000000,60.583256
541376002.478249,-1.013809,-0.004745,0.025635,-1.615004,0.002761,0.006724,-0.999019,-0.002761,0.044193,-0.014790,-0.001984,-0.018559,-0.017092,-0.055758,0.014364,212.623291,201.785965,20.000000,38.934684,-77.044003,65.000000,-1.000000,-1.000000,60.583256
541376002.488256,-1.010605,-0.003601,0.025909,-1.615637,0.002697,0.006555,-0.998991,-0.002697,0.044826,-0.011614,-0.000904,-0.018916,-0.014876,-0.065332,0.004763,212.623291,201.785965,20.000000,38.934684,-77.044003,65.000000,-1.000000,-1.000000,60.583256
541376002.498314,-1.006424,-0.001236,0.037872,-1.616311,0.002633,0.006421,-0.998961,-0.002633,0.045498,-0.007463,0.001397,-0.007626,-0.013800,-0.064266,0.002633,212.658218,201.820892,20.000000,38.934684,-77.044003,65.000000,-1.000000,-1.000000,60.583256
541376002.507652,-1.005096,-0.002060,0.040588,-1.617164,0.002625,0.006258,-0.998922,-0.002625,0.046351,-0.006175,0.000565,-0.005762,-0.018077,-0.075975,0.010082,212.658218,201.820892,20.000000,38.934684,-77.044003,65.000000,-1.000000,-1.000000,60.583256
541376002.518239,-1.006989,-0.003387,0.039062,-1.618152,0.002650,0.006019,-0.998875,-0.002650,0.047338,-0.008113,-0.000738,-0.008275,-0.024455,-0.083456,0.007913,212.700912,201.863586,20.000000,38.934684,-77.044003,65.000000,-1.000000,-1.000000,60.583256
541376002.528236,-1.002563,-0.001129,0.045914,-1.618970,0.002698,0.005820,-0.998836,-0.002698,0.048155,-0.003727,0.001569,-0.002241,-0.018072,-0.068539,0.004746,212.700912,201.863586,20.000000,38.934684,-77.044003,65.000000,-1.000000,-1.000000,60.583256
541376002.538247,-0.997620,0.001556,0.053894,-1.619693,0.002717,0.005663,-0.998801,-0.002717,0.048877,0.001181,0.004274,0.005017,-0.015924,-0.073843,0.005823,212.700912,201.863586,20.000000,38.934684,-77.044003,65.000000,-1.000000,-1.000000,60.583256
541376002.548243,-0.995499,0.000839,0.052963,-1.620343,0.002737,0.005512,-0.998769,-0.002736,0.049526,0.003270,0.003576,0.003437,-0.015886,-0.079167,0.001551,212.744781,201.907455,20.000000,38.934684,-77.044003,65.000000,-1.000000,-1.000000,60.583256
541376002.558217,-0.993896,-0.000397,0.057571,-1.620633,0.002768,0.005340,-0.998755,-0.002768,0.049816,0.004858,0.002372,0.007755,-0.017016,-0.056843,0.000484,212.744781,201.907455,20.000000,38.934684,-77.044003,65.000000,-1.000000,-1.000000,60.583256
541376002.568220,-0.995361,-0.001404,0.062592,-1.620716,0.002799,0.005180,-0.998751,-0.002799,0.049898,0.003389,0.001395,0.012693,-0.015996,-0.038761,-0.000574,212.768539,201.931213,20.000000,38.934684,-77.044003,65.000000,-1.000000,-1.000000,60.583256
541376002.578171,-0.996460,0.000137,0.060287,-1.620941,0.002795,0.005041,-0.998739,-0.002795,0.050124,0.002279,0.002932,0.010164,-0.012790,-0.040869,0.000509,212.768539,201.931213,20.000000,38.934684,-77.044003,65.000000,-1.000000,-1.000000,60.583256
541376002.588208,-0.999725,0.000137,0.052078,-1.621324,0.002771,0.004889,-0.998720,-0.002771,0.050506,-0.001005,0.002908,0.001572,-0.016068,-0.055382,0.001577,212.768539,201.931213,20.000000,38.934684,-77.044003,65.000000,-1.000000,-1.000000,60.583256
541376002.598297,-1.003601,0.001007,0.044876,-1.621720,0.002827,0.004703,-0.998700,-0.002827,0.050902,-0.004901,0.003834,-0.006026,-0.019231,-0.056474,-0.005912,212.792465,201.955139,20.000000,38.934684,-77.044003,65.000000,-1.000000,-1.000000,60.583256
541376002.608212,-1.007111,-0.005569,0.044724,-1.622318,0.002378,0.004426,-0.998670,-0.002378,0.051499,-0.008440,-0.003192,-0.006775,-0.034593,-0.069186,0.078355,212.792465,201.955139,20.000000,38.934684,-77.044003,65.000000,-1.000000,-1.000000,60.583256
541376002.618192,-1.024750,-0.065781,0.040192,-1.622968,0.001253,0.003363,-0.998639,-0.001253,0.052148,-0.026111,-0.064528,-0.011956,-0.123415,-0.077048,0.108873,212.876434,202.039108,20.000000,38.934684,-77.044003,65.000000,-1.000000,-1.000000,60.583256
541376002.628199,-1.021240,0.017456,0.022903,-1.624262,0.000700,0.002383,-0.998571,-0.000700,0.053440,-0.022669,0.018156,-0.030537,-0.069440,-0.139613,0.039726,212.876434,202.039108,20.000000,38.934684,-77.044003,65.000000,-1.000000,-1.000000,60.583256
541376002.638206,-1.012299,0.049911,0.056656,-1.625331,0.000544,0.002677,-0.998513,-0.000544,0.054507,-0.013785,0.050455,0.002149,0.060889,-0.079425,0.010496,212.876434,202.039108,20.000000,38.934684,-77.044003,65.000000,-1.000000,-1.000000,60.583256
541376002.648193,-0.996582,0.020020,0.086670,-1.625660,0.000342,0.003711,-0.998495,-0.000342,0.054836,0.001913,0.020361,0.031834,0.109768,-0.005779,0.020368,212.894455,202.057129,20.000000,38.934684,-77.044003,65.000000,-1.000000,-1.000000,60.583256
541376002.658206,-0.984314,0.006943,0.073898,-1.625687,-0.000057,0.004695,-0.998493,0.000057,0.054863,0.014179,0.006886,0.019035,0.095780,0.000551,0.035248,212.894455,202.057129,20.000000,38.934684,-77.044003,65.000000,-1.000000,-1.000000,60.583256
541376002.668179,-0.986633,-0.001724,0.075867,-1.625774,-0.000427,0.005509,-0.998489,0.000427,0.054950,0.011855,-0.002151,0.020917,0.076612,-0.013380,0.030878,212.761398,201.924072,20.000000,38.934684,-77.044003,65.000000,-1.000000,-1.000000,60.583256
541376002.678199,-0.984238,0.003891,0.081299,-1.625440,-0.000738,0.006184,-0.998507,0.000738,0.054617,0.014269,0.003153,0.026682,0.069007,0.037616,0.025515,212.761398,201.924072,20.000000,38.934684,-77.044003,65.000000,-1.000000,-1.000000,60.583256
541376002.688278,-0.978485,0.010910,0.089218,-1.624527,-0.000887,0.006896,-0.998556,0.000887,0.053705,0.020071,0.010023,0.035513,0.073182,0.085479,0.017007,212.761398,201.924072,20.000000,38.934684,-77.044003,65.000000,-1.000000,-1.000000,60.583256
541376002.698239,-0.974838,0.008774,0.081390,-1.623698,-0.000217,0.007612,-0.998600,0.000217,0.052877,0.023762,0.008557,0.028514,0.072282,0.053550,0.003114,212.666840,201.829514,20.000000,38.934684,-77.044003,65.000000,-1.000000,-1.000000,60.583256
541376002.708167,-0.979889,0.005692,0.063431,-1.623039,-0.000394,0.008335,-0.998635,0.000394,0.052219,0.018746,0.005298,0.011212,0.069213,0.026933,-0.007585,212.666840,201.829514,20.000000,38.934684,-77.044003,65.000000,-1.000000,-1.000000,60.583256
541376002.718165,-0.993576,0.006409,0.061554,-1.622769,-0.000972,0.008928,-0.998649,0.000972,0.051949,0.005073,0.005437,0.009605,0.054199,0.032183,-0.000184,212.568329,201.731003,20.000000,38.934684,-77.044003,65.000000,-1.000000,-1.000000,60.583256
541376002.727967,-1.000092,0.004745,0.051987,-1.622833,-0.001173,0.009418,-0.998645,0.001173,0.052013,-0.001446,0.003573,-0.000026,0.046756,0.033196,-0.007695,212.568329,201.731003,20.000000,38.934684,-77.044003,65.000000,-1.000000,-1.000000,60.583256
541376002.738150,-0.996490,0.003754,0.050354,-1.622831,-0.001164,0.009865,-0.998645,0.001164,0.052011,0.002155,0.002590,-0.001657,0.042524,0.024661,-0.010922,212.568329,201.731003,20.000000,38.934684,-77.044003,65.000000,-1.000000,-1.000000,60.583256
541376002.748143,-0.990601,0.005264,0.045532,-1.622942,-0.001071,0.010296,-0.998640,0.001071,0.052122,0.008039,0.004194,-0.006590,0.042531,0.015097,-0.006653,212.501511,201.664185,20.000000,38.934684,-77.044003,65.000000,-1.000000,-1.000000,60.583256
541376002.758138,-0.990799,0.001999,0.049530,-1.623209,-0.001139,0.010716,-0.998626,0.001139,0.052388,0.007827,0.000860,-0.002859,0.041433,0.004475,0.005083,212.501511,201.664185,20.000000,38.934684,-77.044003,65.000000,-1.000000,-1.000000,60.583256
541376002.767336,-0.998001,-0.001419,0.054916,-1.623633,-0.001380,0.011011,-0.998603,0.001380,0.052812,0.000602,-0.002799,0.002105,0.027520,-0.000904,0.012486,212.501511,201.664185,20.000000,38.934684,-77.044003,65.000000,-1.000000,-1.000000,60.583256
541376002.777772,-0.998444,0.001511,0.052414,-1.624018,-0.001531,0.011160,-0.998583,0.001531,0.053196,0.000139,-0.000021,-0.000782,0.012631,-0.007377,0.002801,212.452499,201.615173,20.000000,38.934684,-77.044003,65.000000,-1.000000,-1.000000,60.583256
541376002.788130,-0.991516,0.001389,0.051773,-1.624200,-0.001534,0.011225,-0.998573,0.001534,0.053378,0.007057,-0.000145,-0.001605,0.005180,-0.002112,-0.005776,212.452499,201.615173,20.000000,38.934684,-77.044003,65.000000,-1.000000,-1.000000,60.583256
541376002.798014,-0.989609,-0.000504,0.054260,-1.624141,-0.001538,0.011220,-0.998576,0.001538,0.053319,0.008967,-0.002042,0.000941,-0.001307,0.021251,-0.004735,212.436111,201.598785,20.000000,38.934684,-77.044003,65.000000,-1.000000,-1.000000,60.583256
541376002.808153,-0.988205,-0.001343,0.052933,-1.623757,-0.001503,0.011211,-0.998597,0.001503,0.052936,0.010392,-0.002846,-0.000003,0.000783,0.042526,-0.007922,212.436111,201.598785,20.000000,38.934684,-77.044003,65.000000,-1.000000,-1.000000,60.583256
541376002.817243,-0.985657,-0.000290,0.054962,-1.623170,-0.001399,0.011317,-0.998628,0.001399,0.052350,0.012971,-0.001689,0.002612,0.014652,0.060667,-0.014254,212.436111,201.598785,20.000000,38.934684,-77.044003,65.000000,-1.000000,-1.000000,60.583256
541376002.827329,-0.987839,0.001389,0.058807,-1.622383,-0.001291,0.011600,-0.998669,0.001291,0.051564,0.010830,0.000098,0.007244,0.030646,0.075635,-0.016306,212.449799,201.612473,20.000000,38.934684,-77.044003,65.000000,-1.000000,-1.000000,60.583256
541376002.838032,-0.995361,0.002243,0.060806,-1.621627,-0.001177,0.011995,-0.998708,0.001177,0.050809,0.003346,0.001066,0.009997,0.039190,0.069306,-0.011994,212.449799,201.612473,20.000000,38.934684,-77.044003,65.000000,-1.000000,-1.000000,60.583256
541376002.847575,-1.000641,0.001343,0.054489,-1.621107,-0.001107,0.012257,-0.998734,0.001107,0.050290,-0.001907,0.000236,0.004199,0.021045,0.050081,-0.004616,212.410202,201.572876,20.000000,38.934684,-77.044003,65.000000,-1.000000,-1.000000,60.583256
541376002.858124,-1.004837,-0.002563,0.042953,-1.620707,-0.001151,0.012294,-0.998754,0.001151,0.049890,-0.006083,-0.003715,-0.006936,-0.001423,0.041472,0.005947,212.410202,201.572876,20.000000,38.934684,-77.044003,65.000000,-1.000000,-1.000000,60.583256
541376002.868212,-1.002411,-0.002853,0.040024,-1.620400,-0.001292,0.012154,-0.998769,0.001292,0.049583,-0.003642,-0.004145,-0.009560,-0.017464,0.027580,0.016540,212.410202,201.572876,20.000000,38.934684,-77.044003,65.000000,-1.000000,-1.000000,60.583256
541376002.878190,-0.996231,0.001709,0.037064,-1.620303,-0.001472,0.011931,-0.998773,0.001472,0.049486,0.002542,0.000237,-0.012422,-0.022778,0.010544,0.020780,212.419998,201.582672,20.000000,38.934684,-77.044003,65.000000,-1.000000,-1.000000,60.583256
541376002.888144,-0.994080,0.002579,0.037094,-1.620348,-0.001634,0.011661,-0.998771,0.001634,0.049532,0.004691,0.000945,-0.012438,-0.027005,-0.003304,0.019688,212.419998,201.582672,20.000000,38.934684,-77.044003,65.000000,-1.000000,-1.000000,60.583256
541376002.898152,-0.997574,0.006424,0.041870,-1.620457,-0.001799,0.011375,-0.998765,0.001799,0.049641,0.001191,0.004625,-0.007770,-0.027007,-0.004366,0.020755,212.466858,201.629532,20.000000,38.934684,-77.044003,65.000000,-1.000000,-1.000000,60.583256
541376002.908196,-1.005707,0.004883,0.045212,-1.620590,-0.001978,0.011078,-0.998758,0.001978,0.049773,-0.006949,0.002905,-0.004562,-0.030210,-0.003321,0.019672,212.466858,201.629532,20.000000,38.934684,-77.044003,65.000000,-1.000000,-1.000000,60.583256
541376002.918209,-1.002945,0.002975,0.046631,-1.620704,-0.002062,0.010787,-0.998752,0.002062,0.049887,-0.004193,0.000914,-0.003256,-0.029079,-0.000146,0.005798,212.466858,201.629532,20.000000,38.934684,-77.044003,65.000000,-1.000000,-1.000000,60.583256
541376002.928153,-0.991714,0.006470,0.046890,-1.620748,-0.002044,0.010571,-0.998750,0.002044,0.049931,0.007036,0.004426,-0.003041,-0.017294,-0.001156,0.000518,212.522720,201.685394,20.000000,38.934684,-77.044003,65.000000,-1.000000,-1.000000,60.583256
541376002.938113,-0.992096,0.003082,0.054230,-1.620649,-0.002009,0.010510,-0.998755,0.002009,0.049832,0.006659,0.001073,0.004398,-0.002361,0.005304,0.001662,212.522720,201.685394,20.000000,38.934684,-77.044003,65.000000,-1.000000,-1.000000,60.583256
541376002.948184,-0.994690,0.005310,0.062714,-1.620370,-0.001921,0.010591,-0.998769,0.001921,0.049553,0.004079,0.003389,0.013160,0.011525,0.023440,-0.007873,212.547470,201.710144,20.000000,38.934684,-77.044003,65.000000,-1.000000,-1.000000,60.583256
541376002.958177,-0.994263,0.007370,0.062973,-1.619887,-0.001739,0.010823,-0.998793,0.001739,0.049071,0.004531,0.005631,0.013902,0.025440,0.039443,-0.021680,212.547470,201.710144,20.000000,38.934684,-77.044003,65.000000,-1.000000,-1.000000,60.583256
541376002.968260,-0.995529,0.003555,0.060776,-1.619395,-0.001540,0.011142,-0.998818,0.001540,0.048580,0.003288,0.002016,0.012196,0.031855,0.036288,-0.020581,212.547470,201.710144,20.000000,38.934684,-77.044003,65.000000,-1.000000,-1.000000,60.583256
541376002.978216,-0.999054,0.001144,0.052399,-1.619088,-0.001432,0.011497,-0.998833,0.001432,0.048273,-0.000221,-0.000287,0.004126,0.034005,0.022483,-0.015235,212.520172,201.682846,20.000000,38.934684,-77.044003,65.000000,-1.000000,-1.000000,60.583256
541376002.988165,-1.002441,0.002365,0.045227,-1.618912,-0.001327,0.011872,-0.998842,0.001327,0.048097,-0.003600,0.001038,-0.002870,0.036177,0.010797,-0.015228,212.520172,201.682846,20.000000,38.934684,-77.044003,65.000000,-1.000000,-1.000000,60.583256
541376002.998165,-1.006912,0.001541,0.041733,-1.618927,-0.001263,0.012299,-0.998841,0.001263,0.048112,-0.008071,0.000278,-0.006380,0.042600,-0.006173,-0.007726,212.468552,201.631226,20.000000,38.934684,-77.044003,65.000000,-1.000000,-1.000000,60.583256
541376003.008157,-1.009857,-0.000015,0.040161,-1.619082,-0.001277,0.012794,-0.998834,0.001277,0.048267,-0.011024,-0.001293,-0.008106,0.051175,-0.018885,-0.005552,212.468552,201.631226,20.000000,38.934684,-77.044003,65.000000,-1.000000,-1.000000,60.583256
541376003.018165,-1.003952,0.001801,0.038422,-1.619405,-0.001270,0.013254,-0.998818,0.001270,0.048590,-0.005134,0.000530,-0.010168,0.043725,-0.030620,-0.004524,212.468552,201.631226,20.000000,38.934684,-77.044003,65.000000,-1.000000,-1.000000,60.583256
541376003.028478,-1.003983,-0.001358,0.036682,-1.619916,-0.001331,0.013617,-0.998793,0.001331,0.049100,-0.005190,-0.002689,-0.012418,0.034096,-0.041292,0.003967,212.415955,201.578629,20.000000,38.934684,-77.044003,65.000000,-1.000000,-1.000000,60.583256
541376003.038141,-1.013306,-0.005493,0.038925,-1.620515,-0.001538,0.013898,-0.998763,0.001538,0.049698,-0.014542,-0.007031,-0.010773,0.027647,-0.050877,0.016744,212.415955,201.578629,20.000000,38.934684,-77.044003,65.000000,-1.000000,-1.000000,60.583256
541376003.048014,-1.018036,-0.000549,0.041443,-1.621163,-0.001747,0.014155,-0.998730,0.001747,0.050345,-0.019305,-0.002296,-0.008903,0.026597,-0.055138,0.015670,212.377716,201.540390,20.000000,38.934684,-77.044003,65.000000,-1.000000,-1.000000,60.583256
541376003.058144,-1.010712,0.005600,0.043182,-1.621674,-0.001815,0.014403,-0.998704,0.001815,0.050856,-0.012007,0.003785,-0.007674,0.024499,-0.045598,0.002850,212.377716,201.540390,20.000000,38.934684,-77.044003,65.000000,-1.000000,-1.000000,60.583256
541376003.068207,-1.003326,0.005615,0.045639,-1.621987,-0.001838,0.014626,-0.998688,0.001838,0.051168,-0.004638,0.003777,-0.005529,0.021269,-0.033920,0.000702,212.377716,201.540390,20.000000,38.934684,-77.044003,65.000000,-1.000000,-1.000000,60.583256
541376003.078171,-0.997772,0.000977,0.049835,-1.622155,-0.001873,0.014800,-0.998680,0.001873,0.051336,0.000907,-0.000896,-0.001501,0.015872,-0.021182,0.003881,212.349152,201.511826,20.000000,38.934684,-77.044003,65.000000,-1.000000,-1.000000,60.583256
541376003.088126,-0.995895,0.001694,0.053391,-1.622183,-0.001881,0.014915,-0.998678,0.001881,0.051363,0.002783,-0.000187,0.002027,0.009443,-0.009523,0.000649,212.349152,201.511826,20.000000,38.934684,-77.044003,65.000000,-1.000000,-1.000000,60.583256
541376003.098130,-0.992874,0.004532,0.057327,-1.622054,-0.001835,0.014954,-0.998685,0.001835,0.051236,0.005811,0.002697,0.006092,0.000890,0.005308,-0.006863,212.346375,201.509048,20.000000,38.934684,-77.044003,65.000000,-1.000000,-1.000000,60.583256
541376003.108101,-0.984909,0.000885,0.056458,-1.621835,-0.001715,0.014887,-0.998696,0.001715,0.051017,0.013787,-0.000830,0.005441,-0.010865,0.009497,-0.009056,212.346375,201.509048,20.000000,38.934684,-77.044003,65.000000,-1.000000,-1.000000,60.583256
541376003.118346,-0.986542,-0.001404,0.048676,-1.621746,-0.001614,0.014753,-0.998701,0.001614,0.050928,0.012159,-0.003017,-0.002252,-0.015125,-0.004341,-0.003743,212.346375,201.509048,20.000000,38.934684,-77.044003,65.000000,-1.000000,-1.000000,60.583256
541376003.128156,-0.993317,0.000671,0.042557,-1.621758,-0.001483,0.014538,-0.998701,0.001483,0.050939,0.005384,-0.000812,-0.008383,-0.023612,-0.009716,-0.012328,212.369293,201.531967,20.000000,38.934684,-77.044003,65.000000,-1.000000,-1.000000,60.583256
541376003.138119,-0.996490,0.003571,0.038712,-1.621813,-0.001352,0.014298,-0.998698,0.001352,0.050994,0.002208,0.002219,-0.012283,-0.024648,-0.015043,-0.015538,212.369293,201.531967,20.000000,38.934684,-77.044003,65.000000,-1.000000,-1.000000,60.583256
541376003.148090,-0.999313,0.002762,0.038589,-1.622027,-0.001210,0.014141,-0.998687,0.001210,0.051208,-0.000626,0.001552,-0.012619,-0.013916,-0.028813,-0.016555,212.404922,201.567596,20.000000,38.934684,-77.044003,65.000000,-1.000000,-1.000000,60.583256
541376003.158097,-0.999954,0.004944,0.042480,-1.622279,-0.001025,0.014118,-0.998675,0.001025,0.051460,-0.001280,0.003919,-0.008979,0.001034,-0.022358,-0.018615,212.404922,201.567596,20.000000,38.934684,-77.044003,65.000000,-1.000000,-1.000000,60.583256
541376003.179835,-0.995102,-0.002182,0.052795,-1.622653,-0.000907,0.014537,-0.998655,0.000907,0.051833,0.003553,-0.003089,0.000962,0.029753,-0.012607,0.000750,212.404922,201.567596,20.000000,38.934684,-77.044003,65.000000,-1.000000,-1.000000,60.583256
541376003.188157,-0.994720,-0.001648,0.056168,-1.622746,-0.000946,0.014700,-0.998651,0.000946,0.051926,0.003930,-0.002594,0.004242,0.032924,-0.010456,0.006104,212.404922,201.567596,20.000000,38.934684,-77.044003,65.000000,-1.000000,-1.000000,60.583256
541376003.198146,-0.991776,0.001282,0.057144,-1.622893,-0.001132,0.015197,-0.998643,0.001132,0.052073,0.006867,0.000150,0.005071,0.030754,-0.010457,0.012500,212.409790,201.572464,20.000000,38.934684,-77.044003,65.000000,-1.000000,-1.000000,60.583256
541376003.208161,-0.989120,0.002533,0.058548,-1.622849,-0.001193,0.015347,-0.998645,0.001193,0.052029,0.009524,0.001340,0.006519,0.030743,-0.005142,0.011433,212.372314,201.534988,20.000000,38.934684,-77.044003,65.000000,-1.000000,-1.000000,60.583256
541376003.218135,-0.988373,0.004272,0.064270,-1.622697,-0.001330,0.015644,-0.998653,0.001330,0.051877,0.010280,0.002942,0.012393,0.030713,0.008679,0.009301,212.372314,201.534988,20.000000,38.934684,-77.044003,65.000000,-1.000000,-1.000000,60.583256
541376003.228103,-0.984848,0.003632,0.064484,-1.622437,-0.001402,0.015955,-0.998666,0.001402,0.051618,0.013818,0.002230,0.012866,0.031789,0.017182,0.002903,212.331650,201.494324,20.000000,38.934684,-77.044003,65.000000,-1.000000,-1.000000,60.583256
541376003.238091,-0.986389,0.000397,0.060379,-1.622113,-0.001444,0.016242,-0.998682,0.001444,0.051294,0.012293,-0.001048,0.009085,0.027507,0.025662,-0.000319,212.331650,201.494324,20.000000,38.934684,-77.044003,65.000000,-1.000000,-1.000000,60.583256
541376003.248078,-0.998077,0.000916,0.056641,-1.621848,-0.001494,0.016510,-0.998696,0.001494,0.051030,0.000618,-0.000578,0.005611,0.026437,0.022470,0.001810,212.290390,201.453064,20.000000,38.934684,-77.044003,65.000000,-1.000000,-1.000000,60.583256
541376003.258082,-0.999954,0.002121,0.050873,-1.621706,-0.001426,0.016795,-0.998703,0.001426,0.050888,-0.001251,0.000695,-0.000015,0.027599,0.011824,-0.009932,212.290390,201.453064,20.000000,38.934684,-77.044003,65.000000,-1.000000,-1.000000,60.583256
541376003.268221,-1.002731,0.003540,0.046555,-1.621765,-0.001247,0.017044,-0.998700,0.001247,0.050947,-0.004031,0.002293,-0.004392,0.022355,-0.006295,-0.018504,212.290390,201.453064,20.000000,38.934684,-77.044003,65.000000,-1.000000,-1.000000,60.583256
541376003.278350,-1.006256,0.004196,0.047470,-1.621992,-0.001079,0.017186,-0.998689,0.001079,0.051173,-0.007567,0.003117,-0.003703,0.011713,-0.022300,-0.017494,212.258957,201.421631,20.000000,38.934684,-77.044003,65.000000,-1.000000,-1.000000,60.583256
541376003.288327,-1.005173,0.003571,0.049850,-1.622330,-0.000942,0.017204,-0.998672,0.000942,0.051511,-0.006501,0.002629,-0.001660,-0.001108,-0.029805,-0.013289,212.258957,201.421631,20.000000,38.934684,-77.044003,65.000000,-1.000000,-1.000000,60.583256
541376003.298397,-1.006424,0.002060,0.055252,-1.622726,-0.000904,0.017142,-0.998651,0.000904,0.051906,-0.007773,0.001156,0.003346,-0.007572,-0.030886,-0.002644,212.263199,201.425873,20.000000,38.934684,-77.044003,65.000000,-1.000000,-1.000000,60.583256
541376003.308394,-1.005615,0.004715,0.062881,-1.623091,-0.000919,0.017061,-0.998632,0.000919,0.052271,-0.006983,0.003796,0.010610,-0.007608,-0.024500,0.000560,212.263199,201.425873,20.000000,38.934684,-77.044003,65.000000,-1.000000,-1.000000,60.583256
541376003.318708,-0.999344,0.006470,0.068497,-1.623296,-0.000932,0.017069,-0.998622,0.000932,0.052475,-0.000722,0.005537,0.016021,0.003027,-0.011681,0.002752,212.263199,201.425873,20.000000,38.934684,-77.044003,65.000000,-1.000000,-1.000000,60.583256
541376003.328444,-0.995270,0.004364,0.069550,-1.623361,-0.001021,0.017212,-0.998618,0.001021,0.052540,0.003349,0.003343,0.017009,0.017909,-0.000955,0.011370,212.267136,201.429810,20.000000,38.934684,-77.044003,65.000000,-1.000000,-1.000000,60.583256
541376003.338442,-0.989883,0.006165,0.068497,-1.623283,-0.001168,0.017476,-0.998622,0.001168,0.052463,0.008739,0.004997,0.016034,0.028570,0.008669,0.010358,212.267136,201.429810,20.000000,38.934684,-77.044003,65.000000,-1.000000,-1.000000,60.583256
541376003.348432,-0.988510,0.010040,0.067245,-1.623022,-0.001285,0.017837,-0.998636,0.001285,0.052202,0.010126,0.008755,0.015043,0.039221,0.025735,0.007213,212.223068,201.385742,20.000000,38.934684,-77.044003,65.000000,-1.000000,-1.000000,60.583256
541376003.358454,-0.994141,0.010178,0.063385,-1.622682,-0.001383,0.018259,-0.998653,0.001383,0.051862,0.004513,0.008795,0.011523,0.043484,0.031073,0.006168,212.223068,201.385742,20.000000,38.934684,-77.044003,65.000000,-1.000000,-1.000000,60.583256
541376003.369308,-0.998825,0.007156,0.054657,-1.622398,-0.001510,0.018637,-0.998668,0.001510,0.051579,-0.000157,0.005646,0.003078,0.034933,0.024654,0.010394,212.223068,201.385742,20.000000,38.934684,-77.044003,65.000000,-1.000000,-1.000000,60.583256
541376003.378007,-1.001480,0.003479,0.043854,-1.622237,-0.001576,0.018872,-0.998676,0.001576,0.051418,-0.002804,0.001903,-0.007564,0.018971,0.016052,0.002839,212.171387,201.334061,20.000000,38.934684,-77.044003,65.000000,-1.000000,-1.000000,60.583256
541376003.388029,-1.009399,0.000778,0.036057,-1.622223,-0.001611,0.018928,-0.998677,0.001611,0.051404,-0.010723,-0.000833,-0.015348,0.001913,0.005327,0.001683,212.171387,201.334061,20.000000,38.934684,-77.044003,65.000000,-1.000000,-1.000000,60.583256
541376003.397996,-1.017273,0.000336,0.028717,-1.622446,-0.001691,0.018833,-0.998665,0.001691,0.051627,-0.018608,-0.001355,-0.022910,-0.011938,-0.017069,0.006947,212.171158,201.333832,20.000000,38.934684,-77.044003,65.000000,-1.000000,-1.000000,60.583256
541376003.408022,-1.013336,-0.002151,0.025803,-1.622868,-0.001738,0.018674,-0.998643,0.001738,0.052048,-0.014693,-0.003889,-0.026245,-0.016127,-0.034116,0.000515,212.171158,201.333832,20.000000,38.934684,-77.044003,65.000000,-1.000000,-1.000000,60.583256
541376003.418018,-1.000366,-0.000763,0.035263,-1.623329,-0.001719,0.018574,-0.998619,0.001719,0.052509,-0.001747,-0.002482,-0.017246,-0.007540,-0.034082,-0.006916,212.171158,201.333832,20.000000,38.934684,-77.044003,65.000000,-1.000000,-1.000000,60.583256
541376003.428028,-0.989395,0.002533,0.053391,-1.623698,-0.001698,0.018662,-0.998600,0.001698,0.052877,0.009205,0.000835,0.000513,0.012729,-0.023342,-0.006812,212.191864,201.354538,20.000000,38.934684,-77.044003,65.000000,-1.000000,-1.000000,60.583256
541376003.437286,-0.982727,0.006073,0.066299,-1.623882,-0.001705,0.018937,-0.998590,0.001705,0.053061,0.015863,0.004368,0.013239,0.031908,-0.007289,-0.005644,212.191864,201.354538,20.000000,38.934684,-77.044003,65.000000,-1.000000,-1.000000,60.583256
541376003.448756,-0.980728,0.007141,0.068130,-1.623895,-0.001723,0.019290,-0.998589,0.001723,0.053074,0.017861,0.005418,0.015056,0.032925,0.002294,-0.001366,212.161087,201.323761,20.000000,38.934684,-77.044003,65.000000,-1.000000,-1.000000,60.583256
541376003.457977,-0.986923,0.004150,0.060196,-1.623808,-0.001833,0.019508,-0.998594,0.001833,0.052987,0.011670,0.002318,0.007209,0.017895,0.000111,0.013506,212.161087,201.323761,20.000000,38.934684,-77.044003,65.000000,-1.000000,-1.000000,60.583256
541376003.468002,-0.994507,0.003128,0.049393,-1.623817,-0.002026,0.019522,-0.998593,0.002026,0.052996,0.004086,0.001103,-0.003603,-0.004534,-0.015946,0.020864,212.161087,201.323761,20.000000,38.934684,-77.044003,65.000000,-1.000000,-1.000000,60.583256
541376003.478016,-0.996964,0.002884,0.042389,-1.623851,-0.002190,0.019296,-0.998591,0.002190,0.053030,0.001627,0.000694,-0.010641,-0.025875,-0.018191,0.016486,212.172379,201.335052,20.000000,38.934684,-77.044003,65.000000,-1.000000,-1.000000,60.583256
541376003.488766,-0.998978,0.002136,0.043533,-1.623800,-0.002274,0.018971,-0.998593,0.002274,0.052979,-0.000385,-0.000138,-0.009446,-0.032289,-0.009724,0.012186,212.172379,201.335052,20.000000,38.934684,-77.044003,65.000000,-1.000000,-1.000000,60.583256
541376003.497936,-0.998596,0.000122,0.044037,-1.623783,-0.002377,0.018754,-0.998594,0.002377,0.052962,-0.000002,-0.002255,-0.008925,-0.016274,-0.007512,0.013334,212.214844,201.377518,20.000000,38.934684,-77.044003,65.000000,-1.000000,-1.000000,60.583256
541376003.507988,-0.990738,0.002167,0.041763,-1.623863,-0.002433,0.018759,-0.998589,0.002433,0.053042,0.007851,-0.000266,-0.011279,0.007288,-0.007405,0.002774,212.214844,201.377518,20.000000,38.934684,-77.044003,65.000000,-1.000000,-1.000000,60.583256
541376003.517985,-0.993759,0.002991,0.043289,-1.624023,-0.002460,0.018923,-0.998581,0.002460,0.053201,0.004822,0.000531,-0.009912,0.020127,-0.009467,0.000702,212.214844,201.377518,20.000000,38.934684,-77.044003,65.000000,-1.000000,-1.000000,60.583256
541376003.528022,-1.002899,0.001434,0.045639,-1.624252,-0.002503,0.019071,-0.998568,0.002503,0.053430,-0.004331,-0.001069,-0.007791,0.010524,-0.013771,0.000653,212.203644,201.366318,20.000000,38.934684,-77.044003,65.000000,-1.000000,-1.000000,60.583256
541376003.537978,-1.000107,-0.001282,0.048599,-1.624472,-0.002486,0.019050,-0.998557,0.002486,0.053650,-0.001550,-0.003768,-0.005050,-0.007596,-0.019191,-0.004777,212.203644,201.366318,20.000000,38.934684,-77.044003,65.000000,-1.000000,-1.000000,60.583256
541376003.547982,-0.994705,-0.002792,0.057648,-1.624609,-0.002389,0.018861,-0.998550,0.002389,0.053787,0.003844,-0.005181,0.003861,-0.023613,-0.015028,-0.009126,212.214798,201.377472,20.000000,38.934684,-77.044003,65.000000,-1.000000,-1.000000,60.583256
541376003.557990,-0.988281,0.000168,0.064865,-1.624513,-0.002308,0.018521,-0.998555,0.002308,0.053691,0.010274,-0.002141,0.011174,-0.038653,0.008292,-0.007060,212.214798,201.377472,20.000000,38.934684,-77.044003,65.000000,-1.000000,-1.000000,60.583256
541376003.574515,-0.984390,-0.001312,0.068527,-1.624297,-0.002253,0.018129,-0.998567,0.002253,0.053475,0.014176,-0.003565,0.015052,-0.038710,0.017870,-0.001719,212.214798,201.377472,20.000000,38.934684,-77.044003,65.000000,-1.000000,-1.000000,60.583256
541376003.577664,-0.987289,0.002762,0.068329,-1.623973,-0.002206,0.017796,-0.998584,0.002206,0.053152,0.011295,0.000556,0.015177,-0.031263,0.028543,-0.001679,212.214798,201.377472,20.000000,38.934684,-77.044003,65.000000,-1.000000,-1.000000,60.583256
541376003.587917,-0.993042,0.007599,0.065552,-1.623608,-0.002180,0.017607,-0.998603,0.002180,0.052787,0.005561,0.005419,0.012765,-0.014179,0.030759,-0.000526,212.276230,201.438904,20.000000,38.934684,-77.044003,65.000000,-1.000000,-1.000000,60.583256
541376003.597939,-0.997238,0.006149,0.063950,-1.623277,-0.002286,0.017592,-0.998621,0.002286,0.052457,0.001382,0.003863,0.011493,0.002854,0.025554,0.014505,212.298141,201.460815,20.000000,38.934684,-77.044003,65.000000,-1.000000,-1.000000,60.583256
541376003.608003,-0.994431,0.006241,0.056351,-1.622981,-0.002477,0.017637,-0.998636,0.002477,0.052161,0.004205,0.003764,0.004190,0.003901,0.023441,0.019849,212.298141,201.460815,20.000000,38.934684,-77.044003,65.000000,-1.000000,-1.000000,60.583256
541376003.620525,-0.990051,0.003311,0.052399,-1.622806,-0.002664,0.017607,-0.998644,0.002664,0.051986,0.008593,0.000648,0.000412,-0.005688,0.012758,0.020866,212.298141,201.460815,20.000000,38.934684,-77.044003,65.000000,-1.000000,-1.000000,60.583256
541376003.627720,-0.996201,-0.002762,0.054291,-1.622724,-0.002834,0.017368,-0.998648,0.002834,0.051904,0.002448,-0.005596,0.002387,-0.029191,0.011572,0.020748,212.303833,201.466507,20.000000,38.934684,-77.044003,65.000000,-1.000000,-1.000000,60.583256
541376003.637945,-1.005234,-0.002762,0.056213,-1.622666,-0.002954,0.016908,-0.998651,0.002953,0.051846,-0.006583,-0.005715,0.004367,-0.049462,0.012519,0.014241,212.303833,201.466507,20.000000,38.934684,-77.044003,65.000000,-1.000000,-1.000000,60.583256
541376003.647940,-1.008789,-0.000397,0.052551,-1.622663,-0.002956,0.016318,-0.998651,0.002956,0.051844,-0.010138,-0.003353,0.000708,-0.060078,0.010319,0.002443,212.373505,201.536179,20.000000,38.934684,-77.044003,65.000000,-1.000000,-1.000000,60.583256
541376003.659457,-1.002075,0.001343,0.047348,-1.622584,-0.002823,0.015667,-0.998655,0.002823,0.051764,-0.003420,-0.001480,-0.004416,-0.066434,0.019832,-0.013601,212.373505,201.536179,20.000000,38.934684,-77.044003,65.000000,-1.000000,-1.000000,60.583256
541376003.667838,-0.999542,0.000000,0.044785,-1.622386,-0.002622,0.015043,-0.998666,0.002622,0.051566,-0.000876,-0.002622,-0.006782,-0.061085,0.030483,-0.021046,212.373505,201.536179,20.000000,38.934684,-77.044003,65.000000,-1.000000,-1.000000,60.583256
541376003.677970,-0.999985,0.003372,0.043411,-1.622140,-0.002363,0.014460,-0.998680,0.002363,0.051321,-0.001305,0.001009,-0.007910,-0.059991,0.031544,-0.026378,212.468506,201.631180,20.000000,38.934684,-77.044003,65.000000,-1.000000,-1.000000,60.583256
541376003.687925,-1.000397,0.005142,0.048431,-1.621876,-0.002131,0.013925,-0.998694,0.002131,0.051058,-0.001703,0.003011,-0.002626,-0.052530,0.028401,-0.021004,212.468506,201.631180,20.000000,38.934684,-77.044003,65.000000,-1.000000,-1.000000,60.583256
541376003.697921,-0.999954,0.005066,0.054153,-1.621687,-0.001964,0.013480,-0.998704,0.001964,0.050869,-0.001251,0.003102,0.003285,-0.041844,0.014643,-0.013480,212.549805,201.712479,20.000000,38.934684,-77.044003,65.000000,-1.000000,-1.000000,60.583256
541376003.707936,-0.999435,0.007614,0.055283,-1.621629,-0.001809,0.013163,-0.998707,0.001809,0.050811,-0.000729,0.005806,0.004472,-0.030085,0.007266,-0.010220,212.549805,201.712479,20.000000,38.934684,-77.044003,65.000000,-1.000000,-1.000000,60.583256
541376003.717913,-1.002289,0.006577,0.057922,-1.621621,-0.001686,0.012930,-0.998707,0.001686,0.050802,-0.003581,0.004890,0.007120,-0.021532,0.001997,-0.008044,212.549805,201.712479,20.000000,38.934684,-77.044003,65.000000,-1.000000,-1.000000,60.583256
541376003.727950,-1.003525,0.002777,0.057449,-1.621629,-0.001627,0.012737,-0.998707,0.001627,0.050810,-0.004818,0.001150,0.006639,-0.018349,-0.000105,-0.002690,212.596664,201.759338,20.000000,38.934684,-77.044003,65.000000,-1.000000,-1.000000,60.583256
541376003.737907,-0.999741,0.000946,0.054031,-1.621573,-0.001602,0.012592,-0.998710,0.001602,0.050755,-0.001031,-0.000656,0.003276,-0.013019,0.004176,-0.002662,212.596664,201.759338,20.000000,38.934684,-77.044003,65.000000,-1.000000,-1.000000,60.583256
541376003.747960,-0.998840,0.001511,0.050323,-1.621520,-0.001571,0.012639,-0.998713,0.001571,0.050702,-0.000128,-0.000060,-0.000378,0.011568,0.000052,-0.002541,212.609467,201.772141,20.000000,38.934684,-77.044003,65.000000,-1.000000,-1.000000,60.583256
541376003.757900,-1.000397,0.003036,0.049377,-1.621511,-0.001561,0.012949,-0.998713,0.001561,0.050693,-0.001684,0.001476,-0.001315,0.037232,-0.003008,-0.004549,212.609467,201.772141,20.000000,38.934684,-77.044003,65.000000,-1.000000,-1.000000,60.583256
541376003.767896,-0.999130,0.004929,0.046417,-1.621501,-0.001523,0.013466,-0.998714,0.001523,0.050683,-0.000417,0.003405,-0.004265,0.054346,0.000264,-0.009802,212.609467,201.772141,20.000000,38.934684,-77.044003,65.000000,-1.000000,-1.000000,60.583256
541376003.777932,-1.003922,0.000488,0.044647,-1.621542,-0.001466,0.014011,-0.998711,0.001466,0.050723,-0.005210,-0.000977,-0.006076,0.053287,-0.002932,-0.009808,212.557144,201.719818,20.000000,38.934684,-77.044003,65.000000,-1.000000,-1.000000,60.583256
541376003.787892,-1.006897,0.000305,0.044525,-1.621700,-0.001474,0.014445,-0.998703,0.001474,0.050882,-0.008193,-0.001169,-0.006357,0.039399,-0.016817,-0.002407,212.557144,201.719818,20.000000,38.934684,-77.044003,65.000000,-1.000000,-1.000000,60.583256
541376003.796993,-1.004059,0.002548,0.047394,-1.621925,-0.001530,0.014764,-0.998692,0.001530,0.051106,-0.005367,0.001019,-0.003713,0.029765,-0.020050,0.002883,212.557144,201.719818,20.000000,38.934684,-77.044003,65.000000,-1.000000,-1.000000,60.583256
541376003.807884,-1.002808,0.003662,0.051270,-1.622178,-0.001628,0.015059,-0.998679,0.001628,0.051359,-0.004129,0.002034,-0.000089,0.029741,-0.023231,0.009288,212.504120,201.666794,20.000000,38.934684,-77.044003,65.000000,-1.000000,-1.000000,60.583256
541376003.817880,-1.002823,0.003555,0.050110,-1.622359,-0.001750,0.015378,-0.998669,0.001750,0.051540,-0.004154,0.001805,-0.001430,0.032912,-0.013642,0.010374,212.504120,201.666794,20.000000,38.934684,-77.044003,65.000000,-1.000000,-1.000000,60.583256
541376003.827935,-1.000732,0.004059,0.051086,-1.622409,-0.001818,0.015737,-0.998667,0.001818,0.051590,-0.002066,0.002240,-0.000503,0.037196,-0.004060,0.002924,212.465591,201.628265,20.000000,38.934684,-77.044003,65.000000,-1.000000,-1.000000,60.583256
541376003.837873,-0.997238,0.003113,0.048309,-1.622368,-0.001788,0.016123,-0.998669,0.001788,0.051549,0.001431,0.001324,-0.003240,0.039367,0.003379,-0.007740,212.465591,201.628265,20.000000,38.934684,-77.044003,65.000000,-1.000000,-1.000000,60.583256
541376003.847849,-0.996246,0.002701,0.047607,-1.622313,-0.001754,0.016559,-0.998672,0.001754,0.051494,0.002425,0.000946,-0.003886,0.045773,0.001289,-0.005573,212.414520,201.577194,20.000000,38.934684,-77.044003,65.000000,-1.000000,-1.000000,60.583256
541376003.857867,-0.994644,0.003845,0.048035,-1.622338,-0.001706,0.017037,-0.998671,0.001706,0.051519,0.004026,0.002139,-0.003484,0.047958,-0.009339,-0.008768,212.414520,201.577194,20.000000,38.934684,-77.044003,65.000000,-1.000000,-1.000000,60.583256
541376003.867864,-0.991898,0.005432,0.050919,-1.622432,-0.001559,0.017474,-0.998666,0.001559,0.051612,0.006768,0.003874,-0.000694,0.039477,-0.014715,-0.018421,212.414520,201.577194,20.000000,38.934684,-77.044003,65.000000,-1.000000,-1.000000,60.583256
541376003.877918,-0.995255,0.004593,0.054352,-1.622552,-0.001367,0.017779,-0.998660,0.001367,0.051732,0.003406,0.003226,0.002619,0.025601,-0.013729,-0.021693,212.354706,201.517380,20.000000,38.934684,-77.044003,65.000000,-1.000000,-1.000000,60.583256
541376003.887857,-1.000366,0.006180,0.052719,-1.622644,-0.001238,0.017920,-0.998656,0.001238,0.051824,-0.001711,0.004942,0.000895,0.009510,-0.007419,-0.013230,212.354706,201.517380,20.000000,38.934684,-77.044003,65.000000,-1.000000,-1.000000,60.583256
541376003.897228,-0.999893,0.008530,0.052399,-1.622762,-0.001158,0.018004,-0.998650,0.001158,0.051942,-0.001244,0.007372,0.000457,0.008441,-0.014862,-0.008967,212.354706,201.517380,20.000000,38.934684,-77.044003,65.000000,-1.000000,-1.000000,60.583256
541376003.907859,-0.998642,0.011566,0.049850,-1.622975,-0.001135,0.018085,-0.998638,0.001135,0.052155,-0.000004,0.010432,-0.002304,0.008433,-0.023360,-0.002563,212.354706,201.517380,20.000000,38.934684,-77.044003,65.000000,-1.000000,-1.000000,60.583256
