Timestamp,Accel_X,Accel_Y,Accel_Z,Roll,Pitch,Yaw,GravAcc_X,GravAcc_Y,GravAcc_Z,UserAcc_X,UserAcc_Y,UserAcc_Z,RotRate_X,RotRate_Y,RotRate_Z,MagHeading,TrueHeading,HeadingAccuracy,Lat,Long,LocAccuracy,Course,Speed,Altitude
541008037.3,0.00119,0.002045,-0.981964,0.00192,-0.003551,0.000007,0.00192,0.003551,-0.999992,-0.000729,-0.001506,0.018028,-0.002258,-0.00063,0.000383,328.540741,317.706024,50,38.905346,-77.037767,352.103887,-1,-1,68.539619
541008037.3,-0.001175,0.003418,-0.983902,0.001919,-0.003568,0,0.001919,0.003568,-0.999992,-0.003094,-0.00015,0.01609,-0.003321,-0.000637,-0.00069,328.540741,317.706024,50,38.905346,-77.037767,352.103887,-1,-1,68.539619
541008037.3,-0.001221,0.004349,-0.989212,0.001918,-0.003585,0.00002,0.001918,0.003585,-0.999992,-0.003138,0.000764,0.01078,-0.002269,-0.000627,0.002519,329.161407,318.326691,55,38.905346,-77.037767,352.103887,-1,-1,68.539619
541008037.4,-0.000458,0.004318,-0.990616,0.001933,-0.003613,0.000029,0.001933,0.003613,-0.999992,-0.002391,0.000705,0.009376,-0.004407,0.001487,0.001441,329.161407,318.326691,55,38.905346,-77.037767,352.103887,-1,-1,68.539619
541008037.4,0.000244,0.003952,-0.991196,0.001942,-0.003636,0.000038,0.001942,0.003636,-0.999991,-0.001698,0.000316,0.008796,-0.002264,0.001497,0.000384,329.161407,318.326691,55,38.905346,-77.037767,352.103887,-1,-1,68.539619
541008037.4,0.002777,0.004272,-0.987808,0.001958,-0.003675,0.000048,0.001957,0.003675,-0.999991,0.00082,0.000598,0.012183,-0.00333,0.000428,0.000378,329.159973,318.325256,55,38.905346,-77.037767,352.103887,-1,-1,68.539619
541008037.4,0.004196,0.004272,-0.985672,0.001973,-0.003697,0.000046,0.001973,0.003697,-0.999991,0.002224,0.000575,0.014319,-0.002259,0.001495,-0.000684,329.159973,318.325256,55,38.905346,-77.037767,352.103887,-1,-1,68.539619
541008037.4,0.005188,0.003616,-0.983749,0.001982,-0.003715,0.000045,0.001982,0.003715,-0.999991,0.003206,-0.000098,0.016242,-0.001193,0.002564,-0.000678,329.160095,318.325378,55,38.905346,-77.037767,352.103887,-1,-1,68.539619
541008037.4,0.005554,0.003662,-0.984543,0.001992,-0.003716,0.000049,0.001992,0.003716,-0.999991,0.003562,-0.000054,0.015448,-0.000124,0.000445,0.000394,329.160095,318.325378,55,38.905346,-77.037767,352.103887,-1,-1,68.539619
541008037.4,0.005356,0.003922,-0.986633,0.001996,-0.003717,0.000053,0.001996,0.003717,-0.999991,0.003359,0.000204,0.013358,-0.000124,0.000445,0.000394,329.160095,318.325378,55,38.905346,-77.037767,352.103887,-1,-1,68.539619
541008037.4,0.005005,0.004456,-0.988739,0.002001,-0.003713,0.000057,0.002001,0.003713,-0.999991,0.003004,0.000742,0.011252,0.000944,0.00045,0.0004,329.159576,318.32486,55,38.905346,-77.037767,352.103887,-1,-1,68.539619
541008037.4,0.004044,0.004318,-0.989136,0.002011,-0.003725,0.00005,0.002011,0.003725,-0.999991,0.002033,0.000593,0.010855,-0.002259,0.001495,-0.000684,329.159576,318.32486,55,38.905346,-77.037767,352.103887,-1,-1,68.539619
541008037.4,0.002686,0.004852,-0.989975,0.00202,-0.003753,0.000038,0.00202,0.003753,-0.999991,0.000665,0.001099,0.010016,-0.003318,0.000425,-0.001757,329.160614,318.325897,55,38.905346,-77.037767,352.103887,-1,-1,68.539619
541008037.5,0.002365,0.006363,-0.985489,0.00203,-0.003765,0.000047,0.00203,0.003765,-0.999991,0.000335,0.002598,0.014502,-0.001193,0.000439,0.000389,329.160614,318.325897,55,38.905346,-77.037767,352.103887,-1,-1,68.539619
541008037.5,0.00174,0.004517,-0.987061,0.002029,-0.003809,0.000051,0.002029,0.003809,-0.999991,-0.00029,0.000707,0.01293,-0.004395,-0.000641,0.000373,329.160614,318.325897,55,38.905346,-77.037767,352.103887,-1,-1,68.539619
541008037.5,0.000259,0.00528,-0.988312,0.002028,-0.003848,0.000071,0.002028,0.003848,-0.999991,-0.001769,0.001432,0.011679,-0.004406,-0.000638,0.002508,329.159485,318.324768,55,38.905346,-77.037767,352.103887,-1,-1,68.539619
541008037.5,-0.004944,0.006378,-0.988831,0.004278,-0.003814,0.000335,0.004278,0.003814,-0.999984,-0.009222,0.002564,0.011153,-0.008882,0.001523,0.039855,329.159485,318.324768,55,38.905346,-77.037767,352.103887,-1,-1,68.539619
541008037.5,-0.018372,0.009506,-0.992462,0.004733,-0.003956,0.000608,0.004733,0.003956,-0.999981,-0.023105,0.005551,0.007519,-0.006608,0.000432,0.014242,329.128601,318.293884,55,38.905346,-77.037767,352.103887,-1,-1,68.539619
541008037.5,0.019028,-0.000992,-0.988617,0.00484,-0.004162,0.000613,0.00484,0.004162,-0.99998,0.014187,-0.005153,0.011363,-0.005476,0.003607,0.000369,329.128601,318.293884,55,38.905346,-77.037767,352.103887,-1,-1,68.539619
541008037.5,0.001724,0.003677,-0.99028,0.004695,-0.004259,0.000621,0.004695,0.004259,-0.99998,-0.002971,-0.000582,0.0097,-0.004404,0.002549,0.000374,329.128601,318.293884,55,38.905346,-77.037767,352.103887,-1,-1,68.539619
541008037.5,-0.001923,0.004196,-0.988068,0.004356,-0.004455,0.000661,0.004356,0.004455,-0.999981,-0.006279,-0.000259,0.011913,-0.008703,0.001471,0.00569,329.126709,318.291992,55,38.905346,-77.037767,352.103887,-1,-1,68.539619
541008037.5,-0.006836,-0.00235,-0.987,0.004096,-0.004879,0.000877,0.004096,0.004879,-0.99998,-0.010932,-0.007228,0.01298,-0.013104,0.004673,0.028091,329.126709,318.291992,55,38.905346,-77.037767,352.103887,-1,-1,68.539619
541008037.5,-0.012268,-0.005417,-0.986359,0.00385,-0.005002,0.001137,0.00385,0.005002,-0.99998,-0.016118,-0.010419,0.013621,-0.020565,0.007816,0.022716,329.097839,318.263123,55,38.905346,-77.037767,352.103887,-1,-1,68.539619
541008037.6,0.013153,0.007248,-0.9944,0.003536,-0.005297,0.001235,0.003536,0.005297,-0.99998,0.009617,0.001951,0.00558,-0.027962,0.012003,0.004529,329.097839,318.263123,55,38.905346,-77.037767,352.103887,-1,-1,68.539619
541008037.6,0.027344,0.016312,-0.986664,0.002673,-0.00549,0.001073,0.002673,0.00549,-0.999981,0.024671,0.010821,0.013318,-0.003239,-0.001723,-0.015637,329.097839,318.263123,55,38.905346,-77.037767,352.103887,-1,-1,68.539619
541008037.6,0.001694,0.005432,-0.984222,0.000718,-0.006026,0.001076,0.000718,0.006026,-0.999982,0.000975,-0.000593,0.015759,-0.019382,0.008851,0.000301,329.101685,318.266968,55,38.905346,-77.037767,352.103887,-1,-1,68.539619
541008037.6,-0.002441,0.000565,-1.003922,0.002466,-0.005593,0.001073,0.002466,0.005593,-0.999981,-0.004907,-0.005028,-0.00394,-0.021511,0.0099,-0.001845,329.101685,318.266968,55,38.905346,-77.037767,352.103887,-1,-1,68.539619
541008037.6,0.007111,0.00679,-0.989487,0.002507,-0.00566,0.001081,0.002507,0.005659,-0.999981,0.004604,0.001131,0.010494,-0.022596,0.0099,0.001353,329.101196,318.266479,55,38.905346,-77.037767,352.103887,-1,-1,68.539619
541008037.6,0.002136,0.005508,-0.985458,0.002257,-0.005739,0.001088,0.002257,0.005739,-0.999981,-0.000121,-0.000231,0.014523,-0.018319,0.008859,0.001374,329.101196,318.266479,55,38.905346,-77.037767,352.103887,-1,-1,68.539619
541008037.6,-0.00116,0.007523,-0.983841,0.001694,-0.005394,0.001301,0.001694,0.005394,-0.999984,-0.002853,0.002129,0.016143,-0.028117,0.007798,0.036558,329.101196,318.266479,55,38.905346,-77.037767,352.103887,-1,-1,68.539619
541008037.6,-0.024109,0.01265,-1.001266,0.00092,-0.005094,0.001727,0.00092,0.005094,-0.999987,-0.025029,0.007555,-0.00128,-0.047389,0.017271,0.0386,329.075317,318.240601,55,38.905346,-77.037767,352.103887,-1,-1,68.539619
541008037.6,0.003326,0.0056,-0.99411,0.001793,-0.005672,0.002119,0.001793,0.005672,-0.999982,0.001534,-0.000072,0.005872,-0.046299,0.00452,0.041805,329.075317,318.240601,55,38.905346,-77.037767,352.103887,-1,-1,68.539619
541008037.6,-0.002182,0.008774,-0.996231,0.003511,-0.006912,0.002576,0.003511,0.006912,-0.99997,-0.005693,0.001862,0.003739,-0.061336,0.021464,0.047073,329.075317,318.240601,55,38.905346,-77.037767,352.103887,-1,-1,68.539619
541008037.7,-0.005569,0.009781,-0.994736,0.003573,-0.007363,0.003093,0.003573,0.007363,-0.999967,-0.009142,0.002418,0.005231,-0.052789,0.014072,0.051385,329.015778,318.181061,55,38.905346,-77.037767,352.103887,-1,-1,68.539619
541008037.7,0.00444,0.010071,-0.983444,0.003428,-0.00752,0.003569,0.003428,0.00752,-0.999966,0.001012,0.002551,0.016522,-0.054922,0.018309,0.048172,329.015778,318.181061,55,38.905346,-77.037767,352.103887,-1,-1,68.539619
541008037.7,0.00354,0.010422,-0.988159,0.003757,-0.008012,0.004067,0.003757,0.008012,-0.999961,-0.000217,0.00241,0.011802,-0.05384,0.011936,0.049243,328.944336,318.109619,55,38.905346,-77.037767,352.103887,-1,-1,68.539619
541008037.7,0.005219,0.008362,-0.991943,0.003849,-0.008537,0.00453,0.003848,0.008537,-0.999956,0.00137,-0.000175,0.008013,-0.070937,0.018222,0.045957,328.944336,318.109619,55,38.905346,-77.037767,352.103887,-1,-1,68.539619
541008037.7,0.006897,0.007843,-1.006271,0.003833,-0.009364,0.004939,0.003833,0.009364,-0.999949,0.003064,-0.001521,-0.006323,-0.091198,0.023417,0.03518,328.944336,318.109619,55,38.905346,-77.037767,352.103887,-1,-1,68.539619
541008037.7,0.016449,0.007843,-0.996628,0.002824,-0.010273,0.005202,0.002824,0.010273,-0.999943,0.013625,-0.00243,0.003315,-0.074054,0.020305,0.027791,328.88028,318.045563,55,38.905346,-77.037767,352.103887,-1,-1,68.539619
541008037.7,0.008621,0.012054,-0.977463,0.003017,-0.010714,0.005456,0.003016,0.010713,-0.999938,0.005605,0.001341,0.022475,-0.06226,0.016105,0.02251,328.88028,318.045563,55,38.905346,-77.037767,352.103887,-1,-1,68.539619
541008037.7,0.011688,0.011032,-0.98941,0.002999,-0.011338,0.00557,0.002998,0.011338,-0.999931,0.00869,-0.000306,0.010521,-0.075014,0.021331,0.006433,328.84613,318.011414,55,38.905346,-77.037767,352.103887,-1,-1,68.539619
541008037.7,0.017899,0.008896,-0.998825,0.002909,-0.012108,0.005573,0.002908,0.012108,-0.999922,0.01499,-0.003212,0.001097,-0.086752,0.025515,0.001037,328.84613,318.011414,55,38.905346,-77.037767,352.103887,-1,-1,68.539619
541008037.7,0.00589,0.011093,-0.998245,0.003324,-0.013031,0.005592,0.003324,0.013031,-0.99991,0.002566,-0.001938,0.001664,-0.107096,0.038171,0.002007,328.84613,318.011414,55,38.905346,-77.037767,352.103887,-1,-1,68.539619
541008037.8,0.000885,0.013824,-1.003479,0.003745,-0.014169,0.005643,0.003745,0.014168,-0.999893,-0.00286,-0.000344,-0.003586,-0.131709,0.043366,0.006156,328.843079,318.008362,55,38.905346,-77.037767,352.103887,-1,-1,68.539619
541008037.8,0.013397,0.043198,-1.007721,0.004029,-0.015368,0.005673,0.004029,0.015368,-0.999874,0.009368,0.02783,-0.007847,-0.146512,0.000744,0.000733,328.843079,318.008362,55,38.905346,-77.037767,352.103887,-1,-1,68.539619
541008037.8,0.02623,0.072479,-1.020248,0.004196,-0.016927,0.005618,0.004196,0.016926,-0.999848,0.022034,0.055553,-0.0204,-0.19884,0.004712,-0.007001,328.839935,318.005219,55,38.905346,-77.037767,352.103887,-1,-1,68.539619
541008037.8,-0.009079,0.014313,-1.042694,0.004523,-0.018967,0.00559,0.004522,0.018966,-0.99981,-0.013601,-0.004653,-0.042884,-0.246905,-0.008294,-0.002973,328.839935,318.005219,55,38.905346,-77.037767,352.103887,-1,-1,68.539619
541008037.8,-0.012909,-0.025391,-1.031219,0.004485,-0.021527,0.005627,0.004484,0.021526,-0.999758,-0.017393,-0.046916,-0.031461,-0.291779,-0.020217,0.003206,328.841187,318.00647,55,38.905346,-77.037767,352.103887,-1,-1,68.539619
541008037.8,-0.000839,-0.023361,-1.035614,0.004498,-0.024589,0.005752,0.004496,0.024586,-0.999688,-0.005336,-0.047947,-0.035926,-0.359136,-0.022682,0.012479,328.841187,318.00647,55,38.905346,-77.037767,352.103887,-1,-1,68.539619
541008037.8,-0.002762,0.01886,-1.048355,0.004688,-0.028185,0.005958,0.004686,0.028181,-0.999592,-0.007448,-0.009321,-0.048763,-0.425414,-0.023019,0.018555,328.841187,318.00647,55,38.905346,-77.037767,352.103887,-1,-1,68.539619
541008037.8,0.005722,0.02475,-1.036865,0.004477,-0.032241,0.006138,0.004474,0.032236,-0.99947,0.001248,-0.007486,-0.037395,-0.468132,-0.024311,0.015138,328.816956,317.982239,55,38.905357,-77.037771,65,-1,-1,69.246353
541008037.8,0.010498,0.030975,-1.016937,0.004153,-0.036571,0.006318,0.00415,0.036563,-0.999323,0.006348,-0.005588,-0.017615,-0.491646,-0.025494,0.017156,328.816956,317.982239,55,38.905357,-77.037771,65,-1,-1,69.246353
541008037.8,0.00499,0.036453,-1.004578,0.004171,-0.041655,0.006508,0.004167,0.041643,-0.999124,0.000823,-0.005189,-0.005454,-0.501274,-0.018104,0.014975,328.79126,317.956543,55,38.905357,-77.037771,65,-1,-1,69.246353
541008037.9,0.01001,0.047119,-0.99823,0.004542,-0.047455,0.006763,0.004536,0.047438,-0.998864,0.005473,-0.000318,0.000634,-0.519494,-0.016057,0.024494,328.79126,317.956543,55,38.905357,-77.037771,65,-1,-1,69.246353
541008037.9,0.011734,0.080078,-1.007965,0.00408,-0.052099,0.007027,0.004075,0.052075,-0.998635,0.007659,0.028003,-0.00933,-0.555834,-0.014119,0.025381,328.79126,317.956543,55,38.905357,-77.037771,65,-1,-1,69.246353
541008037.9,0.00293,0.059036,-1.020248,0.003558,-0.05628,0.007273,0.003552,0.056251,-0.99841,-0.000622,0.002786,-0.021838,-0.593215,-0.017507,0.024126,328.754761,317.920044,55,38.905357,-77.037771,65,-1,-1,69.246353
541008037.9,-0.003189,0.034393,-1.015228,0.003243,-0.060792,0.007536,0.003237,0.060755,-0.998147,-0.006426,-0.026362,-0.017081,-0.619907,-0.024027,0.023991,328.754761,317.920044,55,38.905357,-77.037771,65,-1,-1,69.246353
541008037.9,0.005615,0.052582,-1.01384,0.003048,-0.066393,0.007693,0.003042,0.066344,-0.997792,0.002574,-0.013762,-0.016048,-0.655165,0.001288,0.008875,328.72345,317.888733,55,38.905357,-77.037771,65,-1,-1,69.246353
541008037.9,0.016312,0.073624,-1.009399,0.003206,-0.072316,0.007672,0.003198,0.072253,-0.997381,0.013114,0.001371,-0.012018,-0.676468,0.010719,-0.00938,328.72345,317.888733,55,38.905357,-77.037771,65,-1,-1,69.246353
541008037.9,0.013046,0.080078,-0.9991,0.003363,-0.078381,0.007577,0.003352,0.078301,-0.996924,0.009694,0.001777,-0.002176,-0.688173,0.002144,-0.013711,328.72345,317.888733,55,38.905357,-77.037771,65,-1,-1,69.246353
541008037.9,0.002823,0.070969,-0.998596,0.003149,-0.084584,0.007448,0.003137,0.084483,-0.99642,-0.000314,-0.013515,-0.002176,-0.705154,-0.034103,-0.014873,328.734131,317.899414,55,38.905357,-77.037771,65,-1,-1,69.246353
541008037.9,0.003738,0.076874,-1.014374,0.003029,-0.091238,0.00732,0.003017,0.091112,-0.995836,0.000722,-0.014238,-0.018538,-0.752222,-0.01202,-0.017237,328.734131,317.899414,55,38.905357,-77.037771,65,-1,-1,69.246353
541008037.9,0.005005,0.096024,-1.030731,0.003053,-0.099032,0.007146,0.003038,0.09887,-0.995096,0.001967,-0.002847,-0.035636,-0.82272,-0.013458,-0.020792,328.755219,317.920502,55,38.905357,-77.037771,65,-1,-1,69.246353
541008038,0.002945,0.126785,-1.04747,0.002983,-0.107189,0.007057,0.002965,0.106983,-0.994256,-0.00002,0.019802,-0.053214,-0.910427,-0.00539,-0.008415,328.755219,317.920502,55,38.905357,-77.037771,65,-1,-1,69.246353
541008038,-0.000397,0.164444,-1.052658,0.002822,-0.115717,0.006835,0.002804,0.115459,-0.993308,-0.0032,0.048985,-0.05935,-0.989403,0.001608,-0.03016,328.755219,317.920502,55,38.905357,-77.037771,65,-1,-1,69.246353
541008038,0.009964,0.136612,-1.032181,0.00273,-0.124919,0.006546,0.002709,0.124594,-0.992204,0.007255,0.012018,-0.039977,-1.033137,-0.023079,-0.030385,328.781982,317.947266,55,38.905357,-77.037771,65,-1,-1,69.246353
541008038,-0.000595,0.133209,-1.016296,0.002908,-0.134706,0.006334,0.002881,0.134299,-0.990937,-0.003476,-0.00109,-0.02536,-1.072778,0.003307,-0.025237,328.781982,317.947266,55,38.905357,-77.037771,65,-1,-1,69.246353
541008038,-0.001953,0.139664,-1.002365,0.003028,-0.14483,0.006184,0.002996,0.144325,-0.989526,-0.004949,-0.004661,-0.012839,-1.090997,0.00854,-0.017852,328.810486,317.975769,55,38.905357,-77.037771,65,-1,-1,69.246353
541008038,0.013092,0.140839,-0.985107,0.002768,-0.154783,0.00617,0.002735,0.154166,-0.988041,0.010357,-0.013327,0.002934,-1.080266,-0.040292,0.001407,328.810486,317.975769,55,38.905357,-77.037771,65,-1,-1,69.246353
541008038,0.012222,0.148254,-0.976044,0.002838,-0.164863,0.00632,0.0028,0.164117,-0.986437,0.009422,-0.015863,0.010393,-1.095447,0.00963,0.015224,328.810486,317.975769,55,38.905357,-77.037771,65,-1,-1,69.246353
541008038,-0.004913,0.192398,-0.971985,0.002569,-0.175101,0.0064,0.00253,0.174208,-0.984706,-0.007443,0.01819,0.012721,-1.100586,-0.031893,0.00024,328.810486,317.975769,55,38.905357,-77.037771,65,-1,-1,69.246353
541008038,0.00119,0.188736,-0.988052,0.002401,-0.185901,0.006267,0.00236,0.184832,-0.982767,-0.001169,0.003904,-0.005285,-1.135812,-0.002337,-0.023417,328.799347,317.96463,55,38.905357,-77.037771,65,-1,-1,69.246353
541008038,0.004074,0.176315,-1.008667,0.002127,-0.191717,0.006154,0.002088,0.190544,-0.981676,-0.000898,-0.001808,-0.006376,-1.154895,-0.050292,-0.024593,328.799347,317.96463,55,38.905357,-77.037771,65,-1,-1,69.246353
541008038.1,-0.002914,0.200256,-1.01683,0.001917,-0.209377,0.005856,0.001875,0.207851,-0.978159,-0.004789,-0.007594,-0.038672,-1.249989,-0.053977,-0.022932,328.819031,317.984314,55,38.905357,-77.037771,65,-1,-1,69.246353
541008038.1,0.005142,0.204819,-1.020615,0.001486,-0.221694,0.005638,0.00145,0.219883,-0.975525,0.003692,-0.015064,-0.045089,-1.294901,-0.038264,-0.025287,328.819031,317.984314,55,38.905357,-77.037771,65,-1,-1,69.246353
541008038.1,-0.013321,0.23912,-0.978897,0.001528,-0.234334,0.00544,0.001487,0.232195,-0.972668,-0.014808,0.006925,-0.006229,-1.315483,0.040334,-0.016827,328.849792,318.015076,55,38.905357,-77.037771,65,-1,-1,69.246353
541008038.1,0.00708,0.233612,-0.942917,0.00115,-0.247165,0.005138,0.001115,0.244656,-0.969609,0.005965,-0.011044,0.026693,-1.264876,-0.059388,-0.033685,328.849792,318.015076,55,38.905357,-77.037771,65,-1,-1,69.246353
541008038.1,0.025543,0.251678,-0.941971,0.000656,-0.259795,0.004949,0.000634,0.256883,-0.966442,0.024909,-0.005204,0.024472,-1.261854,-0.024257,-0.018713,328.849792,318.015076,55,38.905357,-77.037771,65,-1,-1,69.246353
541008038.1,0.002335,0.293945,-0.923767,0.000933,-0.272498,0.004698,0.000899,0.269138,-0.963101,0.001436,0.024807,0.039334,-1.259846,0.03529,-0.028296,328.881775,318.047058,55,38.905357,-77.037771,65,-1,-1,69.246353
541008038.1,0.014862,0.308945,-0.940063,0.000778,-0.278832,0.004634,0.000748,0.275233,-0.961377,0.001587,0.018713,0.03761,-1.257599,-0.027417,-0.013354,328.881775,318.047058,55,38.905357,-77.037771,65,-1,-1,69.246353
541008038.1,0.002701,0.3134,-0.962784,0.001074,-0.298178,0.005082,0.001026,0.293779,-0.955873,0.001674,0.019622,-0.006911,-1.320305,0.135029,0.033355,328.881775,318.047058,55,38.905357,-77.037771,65,-1,-1,69.246353
541008038.1,-0.000046,0.300079,-0.930084,0.001327,-0.311286,0.005325,0.001264,0.306283,-0.95194,-0.001309,-0.006203,0.021855,-1.293843,-0.114755,0.020609,328.884644,318.049927,55,38.905357,-77.037771,65,-1,-1,69.246353
541008038.1,-0.001694,0.304199,-1.008957,0.000442,-0.324823,0.005677,0.000419,0.319141,-0.947707,-0.002113,-0.014942,-0.06125,-1.366587,-0.08961,0.022388,328.884644,318.049927,55,38.905357,-77.037771,65,-1,-1,69.246353
541008038.2,-0.004913,0.311386,-1.003174,-0.00023,-0.339293,0.005844,-0.000217,0.33282,-0.94299,-0.004696,-0.021434,-0.060184,-1.474523,-0.062544,0.010113,328.884644,318.049927,55,38.905357,-77.037771,65,-1,-1,69.246353
541008038.2,0.01059,0.367172,-1.006134,-0.000865,-0.354941,0.005694,-0.000811,0.347535,-0.937667,0.011401,0.019637,-0.068467,-1.582237,-0.068479,-0.025659,328.884644,318.049927,55,38.905357,-77.037771,65,-1,-1,69.246353
541008038.2,0.007355,0.409195,-0.994827,-0.002164,-0.37131,0.00503,-0.002016,0.362836,-0.931851,0.009371,0.046359,-0.062977,-1.642777,-0.12415,-0.063345,328.857788,318.023071,55,38.905357,-77.037771,65,-1,-1,69.246353
541008038.2,-0.005981,0.40097,-0.91951,-0.001371,-0.38769,0.003934,-0.001269,0.378051,-0.925784,-0.004712,0.022919,0.006274,-1.626611,0.272512,-0.11334,328.857788,318.023071,55,38.905357,-77.037771,65,-1,-1,69.246353
541008038.2,-0.003555,0.420654,-0.704422,0.000924,-0.403176,0.002672,0.00085,0.392341,-0.919819,-0.004405,0.028313,0.215397,-1.492619,0.145476,-0.118064,328.857788,318.023071,55,38.905357,-77.037771,65,-1,-1,69.246353
541008038.2,-0.019745,0.382324,-0.880081,-0.000067,-0.417039,0.001588,-0.000061,0.405055,-0.914292,-0.019684,-0.02273,0.034211,-1.360598,-0.090942,-0.096115,329.013458,318.178741,55,38.905357,-77.037771,65,-1,-1,69.246353
541008038.2,-0.01564,0.353409,-0.869507,-0.000206,-0.430532,0.000592,-0.000187,0.417354,-0.908744,-0.015453,-0.063945,0.039237,-1.337562,0.060189,-0.092757,329.013458,318.178741,55,38.905357,-77.037771,65,-1,-1,69.246353
541008038.2,0.006409,0.388107,-0.843384,-0.00002,-0.443553,-0.000464,-0.000018,0.429152,-0.903232,0.006427,-0.041044,0.059849,-1.28093,0.057296,-0.091408,329.164368,318.329651,55,38.905357,-77.037771,65,-1,-1,69.246353
541008038.2,-0.005997,0.40416,-0.848099,0.000558,-0.456177,-0.001015,0.000501,0.440519,-0.897743,-0.006498,-0.03636,0.049644,-1.253506,0.080918,-0.036813,329.164368,318.329651,55,38.905357,-77.037771,65,-1,-1,69.246353
541008038.2,-0.001358,0.437943,-0.856369,0.000716,-0.468531,-0.001123,0.000639,0.451576,-0.892232,-0.001997,-0.013633,0.035863,-1.227732,-0.007172,-0.011083,329.164368,318.329651,55,38.905357,-77.037771,65,-1,-1,69.246353
541008038.3,0.006958,0.440338,-0.889587,0.000751,-0.480934,-0.000993,0.000666,0.462608,-0.886563,0.006292,-0.02227,-0.003025,-1.240765,0.013009,0.017685,329.231384,318.396667,55,38.905357,-77.037771,65,-1,-1,69.246353
541008038.3,-0.002731,0.459183,-0.876984,0.001283,-0.493563,-0.000973,0.00113,0.473767,-0.880649,-0.003861,-0.014584,0.003666,-1.261157,0.091553,-0.010156,329.231384,318.396667,55,38.905357,-77.037771,65,-1,-1,69.246353
541008038.3,0.000885,0.483734,-0.860672,0.001064,-0.499766,-0.00112,0.000934,0.47922,-0.877694,-0.003665,-0.020037,0.00071,-1.231854,-0.029549,-0.027125,329.231445,318.396729,55,38.905357,-77.037771,65,-1,-1,69.246353
541008038.3,-0.005234,0.479935,-0.828049,0.001033,-0.517792,-0.001635,0.000897,0.494963,-0.868913,-0.006131,-0.015028,0.040865,-1.168811,-0.010096,-0.03855,329.231445,318.396729,55,38.905357,-77.037771,65,-1,-1,69.246353
541008038.3,-0.008942,0.489594,-0.811935,0.001141,-0.529157,-0.002078,0.000985,0.504806,-0.863232,-0.009927,-0.015213,0.051297,-1.126289,0.060314,-0.037252,329.231445,318.396729,55,38.905357,-77.037771,65,-1,-1,69.246353
541008038.3,-0.001984,0.475555,-0.806641,0.001026,-0.534613,-0.002389,0.000883,0.509508,-0.860465,-0.009825,-0.019915,0.04853,-1.076894,0.008439,-0.054103,329.286621,318.451904,55,38.905357,-77.037771,65,-1,-1,69.246353
541008038.3,0.000259,0.476669,-0.797501,0.000852,-0.549655,-0.003027,0.000726,0.522393,-0.852704,-0.000467,-0.045724,0.055204,-0.96263,-0.000508,-0.036453,329.286621,318.451904,55,38.905357,-77.037771,65,-1,-1,69.246353
541008038.3,0.005707,0.495193,-0.787827,0.000649,-0.558656,-0.003591,0.00055,0.530047,-0.847968,0.005157,-0.034853,0.060142,-0.876084,0.02757,-0.052029,329.35614,318.521423,55,38.905357,-77.037771,65,-1,-1,69.246353
541008038.3,0.006363,0.492691,-0.771271,0.000992,-0.566888,-0.00422,0.000836,0.537009,-0.843576,0.005526,-0.044318,0.072305,-0.80135,0.056665,-0.056987,329.35614,318.521423,55,38.905357,-77.037771,65,-1,-1,69.246353
541008038.3,0.01889,0.518341,-0.777328,0.00088,-0.570709,-0.004602,0.000741,0.540229,-0.841518,0.005622,-0.047538,0.070247,-0.754183,0.018618,-0.064236,329.35614,318.521423,55,38.905357,-77.037771,65,-1,-1,69.246353
541008038.4,0.021942,0.534012,-0.763412,0.000719,-0.580855,-0.00594,0.000601,0.548739,-0.835993,0.021341,-0.014727,0.072581,-0.637741,0.057483,-0.081796,329.454926,318.620209,55,38.905357,-77.037771,65,-1,-1,69.246353
541008038.4,0.009399,0.549408,-0.754013,0.000719,-0.586841,-0.006923,0.000599,0.553734,-0.832693,0.0088,-0.004326,0.07868,-0.584308,0.054572,-0.081531,329.454926,318.620209,55,38.905357,-77.037771,65,-1,-1,69.246353
541008038.4,-0.001236,0.573868,-0.775772,0.000622,-0.592313,-0.007824,0.000516,0.558281,-0.829651,-0.001752,0.015587,0.053879,-0.572614,0.04615,-0.065459,329.591339,318.756622,55,38.905357,-77.037771,65,-1,-1,69.246353
541008038.4,-0.003906,0.603119,-0.78067,0.00096,-0.597725,-0.00847,0.000794,0.562764,-0.826617,-0.0047,0.040355,0.045947,-0.580235,0.067401,-0.050544,329.591339,318.756622,55,38.905357,-77.037771,65,-1,-1,69.246353
541008038.4,0.007568,0.600647,-0.787491,0.001039,-0.602945,-0.009068,0.000855,0.567071,-0.823668,0.006713,0.033576,0.036178,-0.554532,0.042019,-0.04722,329.591339,318.756622,55,38.905357,-77.037771,65,-1,-1,69.246353
541008038.4,0.001709,0.575256,-0.775299,0.001116,-0.607759,-0.009553,0.000917,0.571029,-0.820929,0.000792,0.004227,0.04563,-0.498955,0.019993,-0.037339,329.686035,318.851318,55,38.905357,-77.037771,65,-1,-1,69.246353
541008038.4,-0.005249,0.582596,-0.758362,0.000899,-0.612023,-0.009814,0.000736,0.574525,-0.818487,-0.005985,0.008071,0.060125,-0.442287,-0.011597,-0.026388,329.686035,318.851318,55,38.905357,-77.037771,65,-1,-1,69.246353
541008038.4,-0.009659,0.573746,-0.757706,0.00121,-0.615847,-0.010006,0.000988,0.57765,-0.816284,-0.010646,-0.003904,0.058578,-0.387949,0.032294,-0.021835,329.732819,318.898102,55,38.905357,-77.037771,65,-1,-1,69.246353
541008038.4,-0.021622,0.566605,-0.764328,0.001287,-0.619235,-0.010128,0.001048,0.580413,-0.814322,-0.02267,-0.013808,0.049994,-0.326942,-0.000354,-0.022608,329.732819,318.898102,55,38.905357,-77.037771,65,-1,-1,69.246353
541008038.4,-0.003235,0.580185,-0.756378,0.00125,-0.620758,-0.010291,0.001017,0.581652,-0.813437,-0.022638,-0.015047,0.049109,-0.30238,0.011465,-0.026753,329.732819,318.898102,55,38.905357,-77.037771,65,-1,-1,69.246353
541008038.5,-0.001343,0.597351,-0.756287,0.000922,-0.624936,-0.010757,0.000748,0.585045,-0.811,-0.002091,0.012306,0.054713,-0.256344,-0.019133,-0.026532,329.759399,318.924683,55,38.905357,-77.037771,65,-1,-1,69.246353
541008038.5,-0.005554,0.600876,-0.774139,0.000751,-0.626189,-0.010913,0.000608,0.586061,-0.810266,-0.001951,0.01129,0.05398,-0.24888,-0.015902,-0.025426,329.759399,318.924683,55,38.905357,-77.037771,65,-1,-1,69.246353
541008038.5,0.002029,0.606491,-0.764832,0.000348,-0.630008,-0.011517,0.000281,0.589151,-0.808022,0.001749,0.01734,0.043191,-0.215767,0.009774,-0.038066,329.809784,318.975067,55,38.905357,-77.037771,65,-1,-1,69.246353
541008038.5,0.003098,0.611725,-0.755539,0.000348,-0.632043,-0.012057,0.00028,0.590795,-0.806822,0.002817,0.02093,0.051283,-0.18909,0.034361,-0.045401,329.809784,318.975067,55,38.905357,-77.037771,65,-1,-1,69.246353
541008038.5,-0.000504,0.611603,-0.752197,0.000339,-0.632904,-0.012346,0.000274,0.591489,-0.806313,0.002824,0.020236,0.050774,-0.170914,0.032328,-0.046378,329.809784,318.975067,55,38.905357,-77.037771,65,-1,-1,69.246353
541008038.5,0.001358,0.612152,-0.753769,-0.000052,-0.63447,-0.01295,-0.000042,0.592751,-0.805386,-0.000462,0.018852,0.053189,-0.124823,-0.011036,-0.049363,329.886444,319.051727,50,38.905357,-77.037771,65,-1,-1,69.246353
541008038.5,0.025101,0.623459,-0.73819,-0.000437,-0.635605,-0.01394,-0.000352,0.593665,-0.804712,0.00171,0.018488,0.050943,-0.091734,0.056084,-0.081211,329.886444,319.051727,50,38.905357,-77.037771,65,-1,-1,69.246353
541008038.5,0.020782,0.622513,-0.709961,-0.000293,-0.636197,-0.015389,-0.000236,0.594141,-0.804361,0.025337,0.029318,0.066171,-0.043728,0.129668,-0.108712,330.048248,319.213531,50,38.905357,-77.037771,65,-1,-1,69.246353
541008038.5,0.022614,0.619125,-0.742615,-0.000124,-0.636441,-0.016977,-0.0001,0.594337,-0.804216,0.020882,0.028176,0.094255,0.0024,0.107544,-0.13091,330.048248,319.213531,50,38.905357,-77.037771,65,-1,-1,69.246353
541008038.5,0.021255,0.616562,-0.766083,-0.000077,-0.636644,-0.018814,-0.000062,0.5945,-0.804095,0.022675,0.024625,0.06148,0.011024,0.119254,-0.152217,330.048248,319.213531,50,38.905357,-77.037771,65,-1,-1,69.246353
541008038.6,0.012131,0.615906,-0.775711,-0.000046,-0.636751,-0.02085,-0.000037,0.594587,-0.804031,0.021292,0.021975,0.037949,0.012114,0.128816,-0.161818,330.3013,319.466583,50,38.905357,-77.037771,65,-1,-1,69.246353
541008038.6,-0.013443,0.606903,-0.784363,0.00002,-0.636898,-0.022667,0.000016,0.594705,-0.803944,0.012114,0.021201,0.028233,0.018472,0.107615,-0.139371,330.3013,319.466583,50,38.905357,-77.037771,65,-1,-1,69.246353
541008038.6,-0.031235,0.600479,-0.791336,0.000158,-0.637129,-0.024047,0.000127,0.59489,-0.803807,-0.01357,0.012013,0.019444,0.017287,0.083205,-0.103082,330.541992,319.707275,50,38.905357,-77.037771,65,-1,-1,69.246353
541008038.6,-0.020126,0.603882,-0.824951,-0.000246,-0.637582,-0.025097,-0.000198,0.595254,-0.803537,-0.031037,0.005225,0.012201,-0.009306,0.004408,-0.080814,330.541992,319.707275,50,38.905357,-77.037771,65,-1,-1,69.246353
541008038.6,0.005539,0.610397,-0.833664,-0.000868,-0.63857,-0.026168,-0.000697,0.596048,-0.802948,-0.019429,0.007834,-0.022003,-0.066944,0.003026,-0.091778,330.541992,319.707275,50,38.905357,-77.037771,65,-1,-1,69.246353
541008038.6,0.013794,0.613571,-0.805145,-0.001005,-0.640292,-0.027231,-0.000806,0.597429,-0.801921,0.006345,0.012968,-0.031743,-0.100047,0.026222,-0.10902,330.686829,319.852112,50,38.905357,-77.037771,65,-1,-1,69.246353
541008038.6,-0.012115,0.608078,-0.74147,-0.000866,-0.642088,-0.028272,-0.000693,0.598869,-0.800847,0.014487,0.014702,-0.004299,-0.06068,0.059414,-0.096003,330.686829,319.852112,50,38.905357,-77.037771,65,-1,-1,69.246353
541008038.6,-0.034973,0.605057,-0.682419,0.000023,-0.642731,-0.028926,0.000018,0.599384,-0.800462,-0.012134,0.008694,0.058991,0.028758,0.112035,-0.065648,330.805786,319.971069,50,38.905357,-77.037771,65,-1,-1,69.246353
541008038.6,-0.016037,0.614273,-0.685791,0.001236,-0.642109,-0.029456,0.00099,0.598886,-0.800834,-0.035963,0.006171,0.118415,0.12372,0.139132,-0.055558,330.805786,319.971069,50,38.905357,-77.037771,65,-1,-1,69.246353
541008038.6,-0.014496,0.61113,-0.729172,0.002341,-0.640685,-0.029892,0.001876,0.597745,-0.801684,-0.017913,0.016528,0.115893,0.184595,0.115021,-0.036043,330.805786,319.971069,50,38.905357,-77.037771,65,-1,-1,69.246353
541008038.7,-0.013184,0.603989,-0.793961,0.002606,-0.638901,-0.030319,0.002092,0.596314,-0.802749,-0.016588,0.014816,0.073577,0.193275,0.047029,-0.022138,330.883789,320.049072,50,38.905357,-77.037771,65,-1,-1,69.246353
541008038.7,0.003845,0.605438,-0.840302,0.002229,-0.637493,-0.030867,0.001791,0.595183,-0.803588,-0.014975,0.008806,0.009628,0.132457,0.022249,-0.024583,330.883789,320.049072,50,38.905357,-77.037771,65,-1,-1,69.246353
541008038.7,0.012711,0.606522,-0.847198,0.001905,-0.636639,-0.031463,0.001532,0.594496,-0.804097,0.002314,0.010942,-0.036205,0.061995,0.021864,-0.035611,330.883789,320.049072,50,38.905357,-77.037771,65,-1,-1,69.246353
541008038.7,0.007889,0.604645,-0.825897,0.001816,-0.636261,-0.031927,0.001461,0.594192,-0.804322,0.01125,0.01233,-0.042877,0.024647,0.013154,-0.04007,330.961212,320.126495,50,38.905357,-77.037771,65,-1,-1,69.246353
541008038.7,-0.002579,0.603531,-0.78389,0.001945,-0.636224,-0.032256,0.001565,0.594163,-0.804343,0.006324,0.010482,-0.021554,0.027801,0.022748,-0.035781,330.961212,320.126495,50,38.905357,-77.037771,65,-1,-1,69.246353
541008038.7,-0.003647,0.60704,-0.751846,0.001707,-0.636389,-0.032805,0.001373,0.594295,-0.804246,-0.003952,0.009236,0.020356,0.067309,0.024025,-0.031313,331.023224,320.188507,50,38.905357,-77.037771,65,-1,-1,69.246353
541008038.7,0.001419,0.610321,-0.740356,0.001103,-0.636607,-0.033638,0.000887,0.59447,-0.804117,-0.004534,0.01257,0.052271,0.111096,0.038072,-0.035362,331.023224,320.188507,50,38.905357,-77.037771,65,-1,-1,69.246353
541008038.7,-0.002106,0.607819,-0.749008,0.000986,-0.636398,-0.034242,0.000793,0.594303,-0.804241,0.000626,0.016018,0.063884,0.14954,0.041467,-0.033034,331.023224,320.188507,50,38.905357,-77.037771,65,-1,-1,69.246353
541008038.7,-0.007462,0.602631,-0.778595,0.000859,-0.635548,-0.034739,0.000691,0.593619,-0.804746,-0.002797,0.0142,0.055738,0.158089,0.029824,-0.026588,331.12854,320.293823,50,38.905357,-77.037771,65,-1,-1,69.246353
541008038.7,-0.00351,0.600281,-0.808395,0.000753,-0.634314,-0.035169,0.000607,0.592625,-0.805478,-0.008068,0.010005,0.026883,0.132448,0.025439,-0.024582,331.12854,320.293823,50,38.905357,-77.037771,65,-1,-1,69.246353
541008038.8,0.000717,0.599792,-0.825989,0.000725,-0.633155,-0.035432,0.000585,0.591691,-0.806164,-0.004094,0.008589,-0.002231,0.095089,0.00717,-0.02157,331.183716,320.348999,50,38.905357,-77.037771,65,-1,-1,69.246353
541008038.8,-0.0065,0.596802,-0.814011,0.000812,-0.632298,-0.035554,0.000655,0.591,-0.806671,0.000062,0.008792,-0.019318,0.066217,0.003839,-0.015309,331.183716,320.348999,50,38.905357,-77.037771,65,-1,-1,69.246353
541008038.8,-0.00737,0.597122,-0.805099,0.000787,-0.63171,-0.035602,0.000635,0.590526,-0.807018,-0.007136,0.006276,-0.006992,0.055519,-0.006838,-0.006823,331.201447,320.36673,50,38.905357,-77.037771,65,-1,-1,69.246353
541008038.8,-0.000671,0.601608,-0.791977,0.000599,-0.631456,-0.035735,0.000484,0.590321,-0.807169,-0.007854,0.006801,0.002069,0.055543,-0.00897,-0.010027,331.201447,320.36673,50,38.905357,-77.037771,65,-1,-1,69.246353
541008038.8,-0.00061,0.602554,-0.775925,0.000465,-0.631419,-0.035892,0.000375,0.590291,-0.80719,-0.001046,0.011317,0.015213,0.068315,0.003861,-0.007824,331.201447,320.36673,50,38.905357,-77.037771,65,-1,-1,69.246353
541008038.8,-0.012314,0.596939,-0.774994,0.000598,-0.631335,-0.035852,0.000483,0.590223,-0.80724,-0.001093,0.012332,0.031316,0.085321,0.009288,0.006142,331.217255,320.382538,50,38.905357,-77.037772,65,-1,-1,69.332375
541008038.8,-0.00853,0.595184,-0.780777,0.000637,-0.630973,-0.03572,0.000514,0.589931,-0.807454,-0.012828,0.007008,0.03246,0.101335,-0.001249,0.01476,331.217255,320.382538,50,38.905357,-77.037772,65,-1,-1,69.332375
541008038.8,-0.01207,0.592194,-0.785156,0.000739,-0.630279,-0.035463,0.000597,0.58937,-0.807863,-0.009127,0.005814,0.027086,0.102308,0.000909,0.031849,331.194794,320.360077,50,38.905357,-77.037772,65,-1,-1,69.332375
541008038.8,-0.010666,0.588791,-0.817093,0.00078,-0.629521,-0.034959,0.00063,0.588757,-0.80831,-0.0127,0.003436,0.023153,0.077751,-0.031099,0.046665,331.194794,320.360077,50,38.905357,-77.037772,65,-1,-1,69.332375
541008038.8,0.001495,0.593048,-0.827972,0.000793,-0.628981,-0.034387,0.000641,0.588321,-0.808627,-0.011307,0.00047,-0.008465,0.042489,-0.03022,0.04649,331.194794,320.360077,50,38.905357,-77.037772,65,-1,-1,69.332375
541008038.9,0.001434,0.594803,-0.818039,0.000662,-0.628807,-0.033861,0.000535,0.58818,-0.80873,0.00096,0.004868,-0.019243,0.016861,-0.040984,0.049562,331.117889,320.283173,50,38.905357,-77.037772,65,-1,-1,69.332375
541008038.9,-0.002197,0.596451,-0.811371,0.000503,-0.628881,-0.033286,0.000407,0.58824,-0.808686,0.001028,0.006563,-0.009353,-0.00132,-0.041074,0.052675,331.117889,320.283173,50,38.905357,-77.037772,65,-1,-1,69.332375
541008038.9,0.004715,0.595779,-0.806061,0.000487,-0.629246,-0.032721,0.000394,0.588535,-0.808472,-0.002591,0.007916,-0.002899,-0.015197,-0.030526,0.044067,331.035828,320.201111,50,38.905357,-77.037772,65,-1,-1,69.332375
541008038.9,0.006119,0.595566,-0.803391,0.000338,-0.63016,-0.032356,0.000273,0.589274,-0.807933,0.005846,0.006292,0.004543,-0.029065,-0.021042,0.034391,331.035828,320.201111,50,38.905357,-77.037772,65,-1,-1,69.332375
541008038.9,0.012283,0.597137,-0.802338,0.000342,-0.630568,-0.032089,0.000276,0.589604,-0.807693,0.005843,0.005962,0.004302,-0.04395,-0.015829,0.017235,331.035828,320.201111,50,38.905357,-77.037772,65,-1,-1,69.332375
541008038.9,0.00473,0.595825,-0.791565,0.000206,-0.631251,-0.032014,0.000166,0.590155,-0.80729,0.012117,0.006982,0.004952,-0.042868,-0.009453,0.010836,330.99884,320.164124,50,38.905357,-77.037772,65,-1,-1,69.332375
541008038.9,0.003677,0.597778,-0.772446,0.000086,-0.631707,-0.032051,0.00007,0.590523,-0.807021,0.004661,0.005302,0.015456,-0.024704,0.005517,0.002389,330.99884,320.164124,50,38.905357,-77.037772,65,-1,-1,69.332375
541008038.9,0.007904,0.601089,-0.777939,-0.000087,-0.631756,-0.032199,-0.00007,0.590563,-0.806991,0.003747,0.007215,0.034546,-0.008604,-0.001857,-0.007142,330.99884,320.164124,50,38.905357,-77.037772,65,-1,-1,69.332375
541008038.9,-0.000595,0.598312,-0.790466,-0.000043,-0.631722,-0.032242,-0.000035,0.590536,-0.807012,0.007939,0.010554,0.029073,-0.008652,0.006657,-0.002869,331.006226,320.171509,50,38.905357,-77.037772,65,-1,-1,69.332375
541008038.9,-0.002609,0.597046,-0.81279,-0.00008,-0.631911,-0.032221,-0.000064,0.590688,-0.8069,-0.000531,0.007625,0.016434,-0.026797,-0.007256,0.001308,331.006226,320.171509,50,38.905357,-77.037772,65,-1,-1,69.332375
541008039,0.005157,0.5979,-0.818451,-0.000154,-0.632437,-0.032262,-0.000124,0.591112,-0.806589,-0.002485,0.005934,-0.006201,-0.059909,-0.003182,-0.003127,331.009094,320.174377,50,38.905357,-77.037772,65,-1,-1,69.332375
541008039,0.01062,0.596893,-0.824066,-0.000221,-0.633355,-0.032353,-0.000179,0.591852,-0.806047,0.005336,0.006048,-0.012404,-0.096192,-0.003385,-0.011849,331.009094,320.174377,50,38.905357,-77.037772,65,-1,-1,69.332375
541008039,0.01062,0.596893,-0.824066,-0.00017,-0.633955,-0.032405,-0.000137,0.592336,-0.805691,0.010757,0.004558,-0.018375,-0.111157,0.006101,-0.016192,331.009094,320.174377,50,38.905357,-77.037772,65,-1,-1,69.332375
541008039,0.007889,0.598557,-0.798386,-0.000078,-0.635968,-0.03279,-0.000063,0.593956,-0.804497,0.006944,0.002922,-0.004646,-0.135689,0.017647,-0.031259,331.021423,320.186707,50,38.905357,-77.037772,65,-1,-1,69.332375
541008039,0.009369,0.603973,-0.789108,-0.000108,-0.637429,-0.033258,-0.000086,0.595131,-0.803629,0.007975,0.003425,0.005243,-0.134563,0.020824,-0.044065,331.021423,320.186707,50,38.905357,-77.037772,65,-1,-1,69.332375
541008039,0.011032,0.631592,-0.765472,-0.000233,-0.638944,-0.033827,-0.000187,0.596348,-0.802726,0.009556,0.007625,0.013618,-0.132384,0.014448,-0.048326,331.082947,320.24823,50,38.905357,-77.037772,65,-1,-1,69.332375
541008039,0.02533,0.657639,-0.729416,0.000055,-0.64038,-0.03472,0.000044,0.5975,-0.801869,0.010988,0.034092,0.036396,-0.11747,0.101663,-0.089869,331.082947,320.24823,50,38.905357,-77.037772,65,-1,-1,69.332375
541008039,0.019424,0.618378,-0.733032,-0.000024,-0.641129,-0.036057,-0.000019,0.598101,-0.801421,0.025349,0.059538,0.072005,-0.046702,0.048836,-0.106613,331.082947,320.24823,50,38.905357,-77.037772,65,-1,-1,69.332375
541008039,-0.015427,0.59407,-0.730087,0.000118,-0.641059,-0.037201,0.000095,0.598045,-0.801463,0.01933,0.020333,0.06843,0.011808,0.097029,-0.084955,331.228638,320.393921,50,38.905357,-77.037772,65,-1,-1,69.332375
541008039,-0.018051,0.640076,-0.74733,0.000155,-0.640697,-0.038208,0.000124,0.597755,-0.801679,-0.015551,-0.003684,0.071592,0.024813,0.039669,-0.087041,331.228638,320.393921,50,38.905357,-77.037772,65,-1,-1,69.332375
541008039.1,-0.016876,0.647903,-0.799103,0.000321,-0.640856,-0.039357,0.000257,0.597882,-0.801584,-0.018309,0.042194,0.054254,-0.049065,0.114764,-0.101269,331.380981,320.546265,50,38.905357,-77.037772,65,-1,-1,69.332375
541008039.1,0.001892,0.614502,-0.850693,0.00069,-0.641982,-0.040637,0.000553,0.598784,-0.80091,-0.017429,0.049119,0.001808,-0.137538,0.055803,-0.108132,331.380981,320.546265,50,38.905357,-77.037772,65,-1,-1,69.332375
541008039.1,-0.003983,0.607452,-0.883926,0.000503,-0.644165,-0.041854,0.000402,0.600531,-0.799601,0.00149,0.013971,-0.051091,-0.243441,0.083972,-0.101178,331.380981,320.546265,50,38.905357,-77.037772,65,-1,-1,69.332375
541008039.1,0.008209,0.619873,-0.822617,0.000262,-0.646999,-0.043097,0.000209,0.602794,-0.797897,-0.004191,0.004658,-0.08603,-0.272048,0.014691,-0.107745,331.556885,320.722168,50,38.905357,-77.037772,65,-1,-1,69.332375
541008039.1,-0.001907,0.648697,-0.768448,-0.000394,-0.650145,-0.044709,-0.000313,0.605302,-0.795996,0.008523,0.014571,-0.026621,-0.282701,0.058188,-0.13875,331.556885,320.722168,50,38.905357,-77.037772,65,-1,-1,69.332375
541008039.1,-0.008072,0.646423,-0.704681,0.000062,-0.653475,-0.046578,0.000049,0.607949,-0.793976,-0.001956,0.040748,0.025528,-0.239989,0.133856,-0.176953,331.768188,320.933472,50,38.905357,-77.037772,65,-1,-1,69.332375
541008039.1,0.003235,0.622589,-0.721802,-0.000087,-0.65573,-0.048663,-0.000069,0.609738,-0.792603,-0.008003,0.036685,0.087922,-0.165074,0.106587,-0.184061,331.768188,320.933472,50,38.905357,-77.037772,65,-1,-1,69.332375
541008039.1,0.005295,0.597992,-0.70372,0.000739,-0.657379,-0.051018,0.000585,0.611044,-0.791596,0.00265,0.011545,0.069794,-0.132486,0.262036,-0.171045,331.768188,320.933472,50,38.905357,-77.037772,65,-1,-1,69.332375
541008039.1,0.074371,0.57048,-0.770721,0.00069,-0.658445,-0.053395,0.000545,0.611887,-0.790945,0.004749,-0.013895,0.087225,-0.034683,0.077509,-0.17381,332.090881,321.256165,50,38.905357,-77.037772,65,-1,-1,69.332375
541008039.1,0.018158,0.51503,-0.818604,0.00086,-0.658872,-0.055251,0.00068,0.612226,-0.790683,0.073691,-0.041745,0.019961,-0.010497,0.136185,-0.133102,332.090881,321.256165,50,38.905357,-77.037772,65,-1,-1,69.332375
541008039.2,-0.009964,0.544678,-0.83699,0.000298,-0.658505,-0.056682,0.000236,0.611935,-0.790908,0.017922,-0.096905,-0.027696,0.008923,0.031046,-0.108476,332.370117,321.5354,50,38.905357,-77.037772,65,-1,-1,69.332375
541008039.2,-0.013397,0.601532,-0.802063,0.000257,-0.658186,-0.058093,0.000203,0.611683,-0.791103,-0.010167,-0.067005,-0.045887,-0.013632,0.075587,-0.11178,332.370117,321.5354,50,38.905357,-77.037772,65,-1,-1,69.332375
541008039.2,-0.006805,0.61322,-0.799667,-0.000167,-0.658278,-0.059234,-0.000132,0.611755,-0.791047,-0.013265,-0.010223,-0.011016,-0.023225,0.021343,-0.08515,332.370117,321.5354,50,38.905357,-77.037772,65,-1,-1,69.332375
541008039.2,-0.007751,0.610123,-0.750809,-0.000045,-0.659325,-0.060644,-0.000036,0.612583,-0.790406,-0.007716,-0.00246,0.039597,0.037539,0.049326,-0.074162,332.55545,321.720734,50,38.905357,-77.037772,65,-1,-1,69.332375
541008039.2,-0.038055,0.607773,-0.715271,-0.000175,-0.658874,-0.061029,-0.000138,0.612227,-0.790682,-0.007613,-0.002105,0.039873,0.088838,0.020903,-0.060034,332.55545,321.720734,50,38.905357,-77.037772,65,-1,-1,69.332375
541008039.2,-0.032471,0.609055,-0.654663,0.000403,-0.657562,-0.061538,0.000319,0.611189,-0.791485,-0.038374,-0.003416,0.076214,0.202737,0.128977,-0.04128,332.673035,321.838318,50,38.905357,-77.037772,65,-1,-1,69.332375
541008039.2,0.022476,0.61496,-0.635361,0.00246,-0.654683,-0.061848,0.001951,0.608907,-0.793239,0.020525,0.006052,0.157878,0.345827,0.181812,-0.054433,332.673035,321.838318,50,38.905357,-77.037772,65,-1,-1,69.332375
541008039.2,0.026276,0.615677,-0.749908,0.002572,-0.65065,-0.062782,0.002046,0.605704,-0.795688,0.02043,0.009256,0.160327,0.403049,0.031066,-0.08088,332.673035,321.838318,50,38.905357,-77.037772,65,-1,-1,69.332375
541008039.2,0.005814,0.621048,-0.842712,0.002789,-0.646774,-0.063996,0.002226,0.602615,-0.798029,0.02405,0.013062,0.04812,0.318634,0.077376,-0.106913,332.7547,321.919983,50,38.905357,-77.037772,65,-1,-1,69.332375
541008039.2,0.028519,0.6073,-0.903671,0.002643,-0.644218,-0.065598,0.002114,0.600574,-0.799567,0.0037,0.020474,-0.043146,0.189375,0.102192,-0.126769,332.7547,321.919983,50,38.905357,-77.037772,65,-1,-1,69.332375
541008039.3,0.026001,0.596054,-0.905685,0.00218,-0.643183,-0.067252,0.001745,0.599746,-0.800189,0.026774,0.007554,-0.103483,0.078389,0.04951,-0.123065,332.96994,322.135223,50,38.905357,-77.037772,65,-1,-1,69.332375
541008039.3,0.032043,0.591217,-0.8638,0.001536,-0.642981,-0.068856,0.001229,0.599583,-0.800311,0.024772,-0.003529,-0.105374,0.011146,0.0332,-0.127675,332.96994,322.135223,50,38.905357,-77.037772,65,-1,-1,69.332375
541008039.3,0.032043,0.591217,-0.8638,0.001187,-0.643321,-0.069817,0.000949,0.599856,-0.800108,0.031094,-0.008639,-0.063692,-0.020871,0.054272,-0.147048,332.96994,322.135223,50,38.905357,-77.037772,65,-1,-1,69.332375
541008039.3,0.001038,0.62854,-0.788132,-0.000017,-0.644593,-0.073821,-0.000014,0.600873,-0.799345,0.030104,0.018466,-0.021822,-0.067643,0.100706,-0.219871,333.235291,322.400574,50,38.905357,-77.037772,65,-1,-1,69.332375
541008039.3,-0.008835,0.606171,-0.779007,-0.000993,-0.645932,-0.076722,-0.000793,0.601943,-0.798539,0.001831,0.026597,0.010407,-0.064447,0.094351,-0.214519,333.235291,322.400574,50,38.905357,-77.037772,65,-1,-1,69.332375
541008039.3,-0.016876,0.608353,-0.752731,-0.001043,-0.647192,-0.07919,-0.000832,0.602949,-0.797779,-0.008003,0.003222,0.018772,-0.037933,0.145547,-0.205832,333.628021,322.793304,50,38.905357,-77.037772,65,-1,-1,69.332375
541008039.3,-0.018433,0.612167,-0.729584,-0.000482,-0.647482,-0.08152,-0.000384,0.60318,-0.797605,-0.016492,0.005173,0.044874,0.008878,0.188349,-0.191707,333.628021,322.793304,50,38.905357,-77.037772,65,-1,-1,69.332375
541008039.3,-0.027054,0.622849,-0.735367,0.000202,-0.647035,-0.083781,0.000161,0.602823,-0.797875,-0.018594,0.009344,0.068291,0.045096,0.206633,-0.180845,333.628021,322.793304,50,38.905357,-77.037772,65,-1,-1,69.332375
541008039.3,-0.029648,0.633163,-0.728439,0.001148,-0.645916,-0.086125,0.000917,0.60193,-0.798548,-0.027971,0.020918,0.063181,0.090041,0.222786,-0.203038,333.956696,323.121979,50,38.905357,-77.037772,65,-1,-1,69.332375
541008039.3,-0.029648,0.633163,-0.728439,0.001622,-0.644954,-0.087414,0.001296,0.601162,-0.799126,-0.030944,0.032002,0.070687,0.11578,0.228205,-0.224262,333.956696,323.121979,50,38.905357,-77.037772,65,-1,-1,69.332375
541008039.4,-0.017426,0.614609,-0.740738,0.002661,-0.642366,-0.092383,0.002131,0.599092,-0.800678,-0.0254,0.019469,0.06676,0.178056,0.247567,-0.293346,333.956696,323.121979,50,38.905357,-77.037772,65,-1,-1,69.332375
541008039.4,-0.020538,0.599503,-0.740143,0.003513,-0.640241,-0.096288,0.002817,0.597389,-0.801947,-0.020243,0.01722,0.061209,0.226079,0.333896,-0.331521,334.350433,323.515717,50,38.905357,-77.037772,65,-1,-1,69.332375
541008039.4,-0.026169,0.598969,-0.752777,0.004185,-0.637923,-0.102039,0.003362,0.595528,-0.803327,-0.0239,0.003975,0.063185,0.266299,0.442281,-0.524543,334.350433,323.515717,50,38.905357,-77.037772,65,-1,-1,69.332375
541008039.4,-0.036606,0.585541,-0.759384,0.0046,-0.63497,-0.110662,0.003703,0.593154,-0.805081,-0.029872,0.005815,0.052304,0.334262,0.586946,-0.731298,335.01059,324.175873,50,38.905357,-77.037772,65,-1,-1,69.332375
541008039.4,-0.019577,0.53949,-0.774139,0.004137,-0.631282,-0.121936,0.00334,0.59018,-0.807265,-0.039945,-0.00464,0.04788,0.429255,0.651973,-0.952886,335.01059,324.175873,50,38.905357,-77.037772,65,-1,-1,69.332375
541008039.4,0.010056,0.519913,-0.77626,0.002987,-0.626687,-0.136216,0.002419,0.586464,-0.809971,-0.021996,-0.046975,0.035832,0.533881,0.766982,-1.206444,336.534912,325.700195,50,38.905357,-77.037772,65,-1,-1,69.332375
541008039.4,0.010056,0.519913,-0.77626,0.002273,-0.624187,-0.144688,0.001845,0.584438,-0.811436,0.008211,-0.064525,0.035176,0.589896,0.881892,-1.358814,336.534912,325.700195,50,38.905357,-77.037772,65,-1,-1,69.332375
541008039.4,-0.003555,0.538742,-0.742477,0.001599,-0.614428,-0.177096,0.001306,0.576491,-0.817102,0.011221,-0.058654,0.064981,0.71882,1.369731,-1.977302,336.534912,325.700195,50,38.905357,-77.037772,65,-1,-1,69.332375
541008039.4,0.022781,0.559937,-0.750885,0.000043,-0.606619,-0.206436,0.000036,0.570093,-0.82158,-0.003591,-0.031351,0.079103,0.852594,1.565244,-2.538187,339.314209,328.479492,50,38.905357,-77.037772,65,-1,-1,69.332375
541008039.4,0.223892,0.645248,-0.62709,-0.00824,-0.594508,-0.246062,-0.006826,0.560101,-0.828396,0.029607,-0.000165,0.077511,1.341086,1.387689,-3.492449,339.314209,328.479492,50,38.905357,-77.037772,65,-1,-1,69.332375
541008039.5,0.11084,0.634583,-0.597,-0.018661,-0.579056,-0.292431,-0.015618,0.547234,-0.836834,0.23951,0.098014,0.209743,1.509669,1.539953,-3.942133,344.568085,333.733368,50,38.905357,-77.037772,65,-1,-1,69.332375
541008039.5,0.11084,0.634583,-0.597,-0.02383,-0.571341,-0.315653,-0.020043,0.540761,-0.840938,0.130883,0.093822,0.243938,1.467082,1.500374,-3.948762,344.568085,333.733368,50,38.905357,-77.037772,65,-1,-1,69.332375
541008039.5,-0.134445,0.465881,-0.892151,-0.036855,-0.549772,-0.377305,-0.031417,0.522493,-0.852064,-0.083634,0.02545,0.023787,1.276014,1.163444,-3.18,344.568085,333.733368,50,38.905357,-77.037772,65,-1,-1,69.332375
541008039.5,-0.104507,0.472015,-0.804245,-0.042611,-0.535923,-0.406898,-0.036625,0.510634,-0.859017,-0.09782,-0.044753,-0.033133,1.274734,0.89456,-2.372905,350.785858,339.951141,50,38.905357,-77.037772,65,-1,-1,69.332375
541008039.5,-0.096832,0.54776,-0.817825,-0.047773,-0.522318,-0.428289,-0.041387,0.49889,-0.865677,-0.06312,-0.026875,0.061432,1.293429,0.393631,-1.778242,350.785858,339.951141,50,38.905357,-77.037772,65,-1,-1,69.332375
541008039.5,-0.038025,0.543152,-0.880936,-0.055191,-0.508267,-0.445176,-0.04819,0.486664,-0.872259,-0.048643,0.061096,0.054434,1.314147,0.056058,-1.460057,354.212921,343.378204,50,38.905357,-77.037772,65,-1,-1,69.332375
541008039.5,0.083084,0.476349,-0.898346,-0.062724,-0.494485,-0.460281,-0.055174,0.474579,-0.878482,0.017149,0.068573,-0.002454,1.285361,-0.063109,-1.403645,354.212921,343.378204,50,38.905357,-77.037772,65,-1,-1,69.332375
541008039.5,0.083084,0.476349,-0.898346,-0.066946,-0.487647,-0.468118,-0.059098,0.468549,-0.881459,0.142182,0.0078,-0.016887,1.281589,-0.105775,-1.47521,354.212921,343.378204,50,38.905357,-77.037772,65,-1,-1,69.332375
541008039.5,-0.042236,0.465057,-0.884048,-0.078053,-0.467695,-0.495647,-0.0696,0.45083,-0.889892,0.117711,0.022757,-0.017563,1.131825,0.252304,-1.851688,356.474457,345.63974,50,38.905357,-77.037772,65,-1,-1,69.332375
541008039.5,-0.035126,0.45108,-0.957825,-0.082556,-0.456573,-0.517488,-0.074015,0.440875,-0.894512,0.031779,0.024183,0.010463,0.880836,0.612207,-2.079193,356.474457,345.63974,50,38.905357,-77.037772,65,-1,-1,69.332375
541008039.6,-0.024658,0.425919,-0.972244,-0.085344,-0.44712,-0.540632,-0.076861,0.432371,-0.898414,0.041735,0.01871,-0.059411,0.738731,0.750648,-2.159941,356.474457,345.63974,50,38.905357,-77.037772,65,-1,-1,69.332375
541008039.6,-0.052124,0.470718,-0.904007,-0.087169,-0.438696,-0.563788,-0.078815,0.42476,-0.901869,0.054157,0.001159,-0.070375,0.625169,0.833017,-2.149808,359.471039,348.636322,50,38.905357,-77.037772,65,-1,-1,69.332375
541008039.6,-0.082672,0.527649,-0.934738,-0.087431,-0.431917,-0.586969,-0.079301,0.418612,-0.904696,0.027177,0.052106,0.000689,0.435616,0.973462,-2.148581,359.471039,348.636322,50,38.905357,-77.037772,65,-1,-1,69.332375
541008039.6,-0.082672,0.527649,-0.934738,-0.087498,-0.429392,-0.598791,-0.079453,0.416318,-0.905741,-0.003219,0.111331,-0.028997,0.315053,0.972781,-2.18228,2.799685,351.964966,50,38.905357,-77.037772,65,-1,-1,69.332375
541008039.6,-0.043015,0.639359,-1.1884,-0.092891,-0.425359,-0.63259,-0.084492,0.412648,-0.906963,0.001774,0.174113,-0.127506,-0.038049,0.273779,-1.890611,2.799685,351.964966,50,38.905357,-77.037772,65,-1,-1,69.332375
541008039.6,0.009796,0.463898,-1.242935,-0.096458,-0.428143,-0.652585,-0.087615,0.415182,-0.905509,0.044601,0.224177,-0.282891,-0.609108,0.557055,-1.757785,2.799685,351.964966,50,38.905357,-77.037772,65,-1,-1,69.332375
541008039.6,0.009796,0.463898,-1.242935,-0.097554,-0.431592,-0.662507,-0.088468,0.418317,-0.903982,0.098264,0.04558,-0.338953,-0.865817,0.611042,-1.737696,5.982986,355.148285,50,38.905357,-77.037772,65,-1,-1,69.332375
541008039.6,-0.095337,0.501862,-1.084442,-0.100916,-0.446482,-0.693448,-0.090869,0.431795,-0.897383,0.044894,0.011045,-0.354738,-1.282486,0.661976,-1.776061,5.982986,355.148285,50,38.905357,-77.037772,65,-1,-1,69.332375
541008039.6,-0.141281,0.507568,-1.029724,-0.104218,-0.458697,-0.714513,-0.093276,0.44278,-0.891765,-0.002061,0.059081,-0.192677,-1.438388,0.546385,-1.728822,8.901538,358.066833,50,38.905357,-77.037772,65,-1,-1,69.332375
541008039.6,-0.141281,0.507568,-1.029724,-0.106395,-0.465171,-0.72463,-0.094911,0.448576,-0.888691,-0.04637,0.058992,-0.141033,-1.485457,0.468593,-1.673558,8.901538,358.066833,50,38.905357,-77.037772,65,-1,-1,69.332375
541008039.7,-0.136276,0.510422,-0.95369,-0.115175,-0.486327,-0.755644,-0.101596,0.467382,-0.878198,-0.056332,0.034419,-0.102926,-1.65157,0.319873,-1.697914,8.901538,358.066833,50,38.905357,-77.037772,65,-1,-1,69.332375
541008039.7,-0.136276,0.510422,-0.95369,-0.11874,-0.493933,-0.766748,-0.104302,0.474093,-0.874275,-0.031974,0.036329,-0.079414,-1.737795,0.332079,-1.766673,11.855616,1.020901,50,38.905357,-77.037772,65,-1,-1,69.332375
541008039.7,-0.109787,0.535629,-0.937103,-0.12657,-0.50996,-0.791858,-0.110171,0.488142,-0.865782,0.000384,0.047487,-0.071321,-1.891531,0.435051,-2.05462,11.855616,1.020901,50,38.905357,-77.037772,65,-1,-1,69.332375
541008039.7,-0.036621,0.535156,-0.858932,-0.140605,-0.534669,-0.833468,-0.120584,0.509556,-0.851946,0.076944,0.045467,-0.057691,-1.967018,0.498297,-2.162816,11.855616,1.020901,50,38.905357,-77.037772,65,-1,-1,69.332375
541008039.7,-0.082672,0.481857,-0.825226,-0.14936,-0.551278,-0.860648,-0.126761,0.523776,-0.842372,0.09014,0.01138,-0.016561,-1.974307,0.541013,-2.019771,11.855616,1.020901,50,38.905357,-77.037772,65,-1,-1,69.332375
541008039.7,-0.082672,0.481857,-0.825226,-0.153355,-0.559445,-0.873696,-0.129467,0.530716,-0.837603,0.046795,-0.048858,0.012377,-1.947029,0.576364,-1.94382,19.232412,8.397697,50,38.905357,-77.037772,65,-1,-1,69.332375
541008039.7,-0.143845,0.47493,-0.777512,-0.160809,-0.575425,-0.899435,-0.134332,0.544191,-0.828137,-0.009513,-0.069262,0.050625,-1.901697,0.655403,-1.872037,19.232412,8.397697,50,38.905357,-77.037772,65,-1,-1,69.332375
541008039.7,-0.195892,0.50473,-0.728073,-0.1723,-0.597411,-0.939245,-0.141753,0.562503,-0.814553,-0.046952,-0.063205,0.063271,-1.757014,0.712345,-1.987679,19.232412,8.397697,50,38.905357,-77.037772,65,-1,-1,69.332375
541008039.7,-0.195892,0.50473,-0.728073,-0.176595,-0.60396,-0.953328,-0.144599,0.567906,-0.810292,-0.051293,-0.063176,0.082219,-1.702154,0.736962,-2.071747,22.989779,12.155064,50,38.905357,-77.037772,65,-1,-1,69.332375
541008039.7,-0.195282,0.505783,-0.725464,-0.192233,-0.62096,-0.998734,-0.155386,0.581816,-0.798339,-0.039896,-0.076033,0.072875,-1.489502,0.698444,-2.257543,22.989779,12.155064,50,38.905357,-77.037772,65,-1,-1,69.332375
541008039.8,-0.248856,0.445923,-0.661896,-0.201992,-0.630193,-1.028225,-0.162084,0.589301,-0.791488,-0.056605,-0.109397,0.067199,-1.319534,0.753807,-2.099731,27.262342,16.427628,50,38.905357,-77.037772,65,-1,-1,69.332375
541008039.8,-0.248856,0.445923,-0.661896,-0.206016,-0.63416,-1.041554,-0.164789,0.592501,-0.788535,-0.084067,-0.146578,0.126639,-1.211412,0.769498,-1.943305,27.262342,16.427628,50,38.905358,-77.037772,65,-1,-1,69.408394
541008039.8,-0.185226,0.448013,-0.61412,-0.212514,-0.643838,-1.074954,-0.168692,0.60027,-0.781805,-0.059778,-0.159977,0.159598,-0.883343,0.96338,-1.449414,27.262342,16.427628,50,38.905358,-77.037772,65,-1,-1,69.408394
541008039.8,-0.185226,0.448013,-0.61412,-0.212894,-0.646218,-1.084178,-0.168687,0.602171,-0.780343,-0.01654,-0.154158,0.166222,-0.780457,1.038513,-1.347451,30.767694,19.93298,50,38.905358,-77.037772,65,-1,-1,69.408394
541008039.8,-0.099289,0.468597,-0.650818,-0.211695,-0.650008,-1.101533,-0.16727,0.605192,-0.778308,0.067981,-0.136595,0.12749,-0.61696,1.210733,-1.24516,30.767694,19.93298,50,38.905358,-77.037772,65,-1,-1,69.408394
541008039.8,-0.048782,0.514603,-0.657394,-0.208019,-0.652672,-1.117344,-0.164074,0.607312,-0.777337,0.115292,-0.092709,0.119942,-0.487496,1.328543,-1.141986,33.197048,22.362333,50,38.905358,-77.037772,65,-1,-1,69.408394
541008039.8,-0.037659,0.542419,-0.71463,-0.204513,-0.654249,-1.131108,-0.161153,0.608563,-0.776969,0.123494,-0.066144,0.062339,-0.348802,1.146581,-0.997205,33.197048,22.362333,50,38.905358,-77.037772,65,-1,-1,69.408394
541008039.8,-0.074936,0.540771,-0.753464,-0.20004,-0.655054,-1.1433,-0.157579,0.609202,-0.777201,0.082643,-0.06843,0.023738,-0.251149,1.213154,-0.911285,33.197048,22.362333,50,38.905358,-77.037772,65,-1,-1,69.408394
541008039.8,-0.152954,0.569427,-0.671631,-0.193905,-0.65514,-1.154373,-0.152798,0.60927,-0.778102,-0.000156,-0.039843,0.106471,-0.167329,1.305138,-0.851053,35.007214,24.172499,50,38.905358,-77.037772,65,-1,-1,69.408394
541008039.8,-0.185593,0.563263,-0.695328,-0.18652,-0.654677,-1.165368,-0.1471,0.608903,-0.779486,-0.038493,-0.04564,0.084158,-0.098202,1.435217,-0.863486,35.007214,24.172499,50,38.905358,-77.037772,65,-1,-1,69.408394
541008039.9,-0.174576,0.576569,-0.709091,-0.17789,-0.653926,-1.176261,-0.140448,0.608307,-0.781177,-0.034128,-0.031739,0.072085,-0.083559,1.545884,-0.866587,36.573193,25.738478,50,38.905358,-77.037772,65,-1,-1,69.408394
541008039.9,-0.139999,0.605209,-0.752426,-0.169403,-0.653048,-1.187484,-0.133904,0.60761,-0.782866,-0.006096,-0.002401,0.03044,-0.066142,1.509757,-0.907082,36.573193,25.738478,50,38.905358,-77.037772,65,-1,-1,69.408394
541008039.9,-0.110138,0.623718,-0.7948,-0.161609,-0.652215,-1.199225,-0.127879,0.606948,-0.784386,0.017741,0.01677,-0.010414,-0.083004,1.481976,-0.936001,36.573193,25.738478,50,38.905358,-77.037772,65,-1,-1,69.408394
541008039.9,-0.107117,0.667725,-0.775467,-0.154377,-0.652021,-1.21127,-0.122221,0.606794,-0.785406,0.015104,0.060931,0.00994,-0.160797,1.428385,-0.944944,38.233414,27.398699,50,38.905358,-77.037772,65,-1,-1,69.408394
541008039.9,-0.11644,0.685989,-0.826828,-0.14817,-0.65303,-1.22392,-0.117253,0.607596,-0.785544,0.000813,0.078394,-0.041284,-0.27898,1.371334,-0.992526,38.233414,27.398699,50,38.905358,-77.037772,65,-1,-1,69.408394
541008039.9,-0.101196,0.689209,-0.826935,-0.142731,-0.654741,-1.237854,-0.112831,0.608954,-0.785139,0.011635,0.080255,-0.041795,-0.350118,1.396331,-1.093237,40.102673,29.267958,50,38.905358,-77.037772,65,-1,-1,69.408394
541008039.9,-0.08548,0.711563,-0.77124,-0.137465,-0.657311,-1.253702,-0.10848,0.61099,-0.78417,0.023,0.100573,0.01293,-0.451157,1.519977,-1.253861,40.102673,29.267958,50,38.905358,-77.037772,65,-1,-1,69.408394
541008039.9,-0.044418,0.717865,-0.773773,-0.132781,-0.66036,-1.272682,-0.104559,0.613401,-0.78282,0.060141,0.104464,0.009046,-0.52184,1.659593,-1.507218,40.102673,29.267958,50,38.905358,-77.037772,65,-1,-1,69.408394
541008039.9,0.009109,0.698715,-0.803299,-0.129094,-0.663621,-1.294663,-0.101414,0.615973,-0.781212,0.110523,0.082742,-0.022087,-0.547711,1.729337,-1.708054,42.716148,31.881433,50,38.905358,-77.037772,65,-1,-1,69.408394
541008039.9,0.00444,0.66449,-0.789902,-0.125774,-0.667168,-1.317158,-0.098545,0.618763,-0.779372,0.102985,0.045726,-0.01053,-0.584055,1.691965,-1.683689,42.716148,31.881433,50,38.905358,-77.037772,65,-1,-1,69.408394
541008040,-0.047699,0.600098,-0.820938,-0.1224,-0.671067,-1.337231,-0.09562,0.621822,-0.777299,0.047921,-0.021725,-0.043639,-0.589104,1.542353,-1.44993,45.797665,34.962952,50,38.905358,-77.037772,65,-1,-1,69.408394
541008040,-0.107468,0.548477,-0.833817,-0.118381,-0.675256,-1.353954,-0.092186,0.625097,-0.775084,-0.015282,-0.07662,-0.058733,-0.562351,1.419543,-1.182907,45.797665,34.962952,50,38.905358,-77.037772,65,-1,-1,69.408394
541008040,-0.152939,0.533142,-0.767731,-0.113032,-0.679232,-1.367881,-0.087758,0.628195,-0.773091,-0.065181,-0.095053,0.00536,-0.499239,1.397851,-0.979737,45.797665,34.962952,50,38.905358,-77.037772,65,-1,-1,69.408394
541008040,-0.176987,0.536377,-0.744324,-0.106793,-0.682767,-1.379788,-0.082696,0.630942,-0.77141,-0.094291,-0.094565,0.027086,-0.430338,1.355872,-0.850215,47.907093,37.07238,50,38.905358,-77.037772,65,-1,-1,69.408394
541008040,-0.157227,0.553787,-0.752899,-0.100458,-0.68555,-1.390676,-0.077631,0.633099,-0.770168,-0.079596,-0.079312,0.017269,-0.342819,1.304296,-0.801746,47.907093,37.07238,50,38.905358,-77.037772,65,-1,-1,69.408394
541008040,-0.102875,0.579147,-0.752136,-0.094756,-0.687434,-1.402022,-0.073125,0.634556,-0.76941,-0.02975,-0.055409,0.017273,-0.250493,1.290839,-0.877095,49.510742,38.676025,50,38.905358,-77.037772,65,-1,-1,69.408394
541008040,-0.053818,0.602264,-0.755493,-0.089303,-0.68872,-1.414547,-0.068855,0.635549,-0.768984,0.015038,-0.033285,0.01349,-0.212864,1.354717,-0.958035,49.510742,38.676025,50,38.905358,-77.037772,65,-1,-1,69.408394
541008040,-0.047546,0.614822,-0.747803,-0.082935,-0.690057,-1.4267,-0.063887,0.636582,-0.768559,0.01634,-0.021759,0.020756,-0.219786,1.428141,-0.90253,49.510742,38.676025,50,38.905358,-77.037772,65,-1,-1,69.408394
541008040,-0.028229,0.62323,-0.749054,-0.075446,-0.691811,-1.439256,-0.058046,0.637933,-0.767901,0.029817,-0.014703,0.018847,-0.260445,1.590506,-0.984902,51.271305,40.436592,50,38.905358,-77.037772,65,-1,-1,69.408394
