Timestamp,Accel_X,Accel_Y,Accel_Z,Roll,Pitch,Yaw,GravAcc_X,GravAcc_Y,GravAcc_Z,UserAcc_X,UserAcc_Y,UserAcc_Z,RotRate_X,RotRate_Y,RotRate_Z,MagHeading,TrueHeading,HeadingAccuracy,Lat,Long,LocAccuracy,Course,Speed,Altitude
541376566.9,0.064301,-0.089188,-0.923798,0.065084,0.102686,-0.006681,0.064695,-0.102505,-0.992626,-0.000395,0.013318,0.068829,-0.072043,-0.008146,0.062502,225.592484,214.755157,20,38.934699,-77.043974,2000,-1,-1,58.325417
541376566.9,0.074203,-0.099182,-0.925949,0.064187,0.101589,-0.005888,0.063812,-0.101414,-0.992796,0.010391,0.002232,0.066846,-0.1231,-0.103041,0.072899,225.592484,214.755157,20,38.934699,-77.043974,2000,-1,-1,58.325417
541376566.9,0.079315,-0.105667,-0.932495,0.06277,0.100464,-0.005219,0.062413,-0.100296,-0.992998,0.016903,-0.005372,0.060503,-0.108993,-0.138093,0.051607,225.592484,214.755157,20,38.934699,-77.043974,2000,-1,-1,58.325417
541376566.9,0.078598,-0.113968,-0.939865,0.06145,0.099749,-0.004905,0.061106,-0.099584,-0.993151,0.017492,-0.014384,0.053286,-0.059707,-0.124063,0.01769,11.369868,0.532571,45,38.934699,-77.043974,2000,-1,-1,58.325417
541376566.9,0.073822,-0.118576,-0.952728,0.060479,0.099555,-0.004955,0.060143,-0.099391,-0.993229,0.013679,-0.019185,0.040501,-0.006239,-0.086609,-0.011929,11.369868,0.532571,45,38.934699,-77.043974,2000,-1,-1,58.325417
541376566.9,0.06427,-0.110779,-0.956818,0.060009,0.099774,-0.005179,0.059675,-0.099609,-0.993236,0.004595,-0.01117,0.036418,0.029998,-0.037518,-0.022412,11.369868,0.532571,45,38.934699,-77.043974,2000,-1,-1,58.325417
541376566.9,0.05542,-0.09613,-0.95546,0.060023,0.100045,-0.005394,0.059687,-0.099878,-0.993208,-0.004267,0.003748,0.037748,0.022355,0.011364,-0.019234,11.408287,0.57099,40,38.934699,-77.043974,2000,-1,-1,58.325417
541376566.9,0.056732,-0.089722,-0.960312,0.060423,0.099859,-0.005607,0.060085,-0.099693,-0.993202,-0.003353,0.009971,0.032891,-0.034345,0.044025,-0.024847,11.408287,0.57099,40,38.934699,-77.043974,2000,-1,-1,58.325417
541376566.9,0.06488,-0.099152,-0.976013,0.061023,0.099073,-0.005931,0.060686,-0.098911,-0.993244,0.004194,-0.00024,0.017231,-0.088803,0.06073,-0.041129,11.760128,0.922831,35,38.934699,-77.043974,2000,-1,-1,58.325417
541376567,0.072388,-0.102493,-0.976425,0.061767,0.097945,-0.006406,0.061432,-0.097788,-0.993309,0.010956,-0.004705,0.016884,-0.113332,0.073338,-0.057263,11.760128,0.922831,35,38.934699,-77.043974,2000,-1,-1,58.325417
541376567,0.069611,-0.08989,-0.967667,0.062646,0.096783,-0.006934,0.062312,-0.096632,-0.993368,0.007299,0.006742,0.025701,-0.11016,0.086114,-0.058312,11.760128,0.922831,35,38.934699,-77.043974,2000,-1,-1,58.325417
541376567,0.063461,-0.078949,-0.962875,0.063487,0.095748,-0.007295,0.063154,-0.095602,-0.993414,0.000307,0.016653,0.030539,-0.098504,0.077704,-0.034767,11.93825,1.100952,35,38.934699,-77.043974,2000,-1,-1,58.325417
541376567,0.063065,-0.074966,-0.95932,0.063955,0.09483,-0.007327,0.063624,-0.094688,-0.993472,-0.00056,0.019722,0.034152,-0.08893,0.034204,-0.001632,11.93825,1.100952,35,38.934699,-77.043974,2000,-1,-1,58.325417
541376567,0.067413,-0.075455,-0.957413,0.063899,0.093856,-0.00718,0.063575,-0.093719,-0.993567,0.003839,0.018264,0.036154,-0.104854,-0.016908,0.007884,12.007675,1.170378,35,38.934699,-77.043974,2000,-1,-1,58.325417
541376567,0.078781,-0.082245,-0.964615,0.063361,0.09249,-0.007203,0.063048,-0.092358,-0.993728,0.015733,0.010113,0.029113,-0.146243,-0.066081,-0.01796,12.007675,1.170378,35,38.934699,-77.043974,2000,-1,-1,58.325417
541376567,0.083588,-0.096054,-0.980011,0.062928,0.091645,-0.00731,0.062623,-0.091517,-0.993832,0.016158,0.009272,0.029218,-0.167472,-0.088545,-0.031951,12.007675,1.170378,35,38.934699,-77.043974,2000,-1,-1,58.325417
541376567,0.076218,-0.098373,-0.982376,0.061898,0.089832,-0.007664,0.061609,-0.089712,-0.99406,0.021979,-0.006342,0.014049,-0.180141,-0.107781,-0.05017,12.003432,1.166135,35,38.934699,-77.043974,2000,-1,-1,58.325417
541376567,0.064651,-0.087357,-0.974579,0.063249,0.094312,-0.008314,0.062926,-0.094173,-0.993565,0.013292,-0.004201,0.011189,-0.170555,-0.088597,-0.055456,12.003432,1.166135,35,38.934699,-77.043974,2000,-1,-1,58.325417
541376567,0.055786,-0.076065,-0.974991,0.066306,0.096398,-0.009041,0.06595,-0.096249,-0.99317,-0.001299,0.008892,0.018591,-0.158934,-0.065123,-0.043647,12.069584,1.232286,30,38.934699,-77.043974,2000,-1,-1,58.325417
541376567.1,0.053497,-0.06958,-0.976089,0.067255,0.093705,-0.009323,0.06691,-0.093567,-0.993362,-0.011124,0.017502,0.018371,-0.153776,-0.050168,-0.016925,12.069584,1.232286,30,38.934699,-77.043974,2000,-1,-1,58.325417
541376567.1,0.05719,-0.06871,-0.981918,0.066457,0.089324,-0.009156,0.066144,-0.089206,-0.993815,-0.012646,0.019626,0.017725,-0.166747,-0.04488,0.008636,12.069584,1.232286,30,38.934699,-77.043974,2000,-1,-1,58.325417
541376567.1,0.067474,-0.076767,-0.996933,0.065845,0.08543,-0.008905,0.065558,-0.085326,-0.994194,-0.008368,0.016616,0.012276,-0.169973,-0.043828,0.011823,12.365048,1.527751,25,38.934699,-77.043974,2000,-1,-1,58.325417
541376567.1,0.08255,-0.086243,-1.003967,0.066036,0.082712,-0.008797,0.065763,-0.082617,-0.994409,0.001711,0.00585,-0.002524,-0.147464,-0.054356,0.004459,12.365048,1.527751,25,38.934699,-77.043974,2000,-1,-1,58.325417
541376567.1,0.079498,-0.080154,-0.997498,0.067801,0.081967,-0.00888,0.067522,-0.081876,-0.994353,0.015028,-0.004367,-0.009615,-0.08978,-0.0498,0.004747,12.57932,1.742023,25,38.934699,-77.043974,2000,-1,-1,58.325417
541376567.1,0.06131,-0.06572,-0.988403,0.069772,0.083698,-0.00885,0.069472,-0.083601,-0.994075,0.010026,0.003446,-0.003423,-0.030104,-0.032442,0.025336,12.57932,1.742023,25,38.934699,-77.043974,2000,-1,-1,58.325417
541376567.1,0.052689,-0.059158,-0.987289,0.070474,0.085666,-0.008474,0.070157,-0.085561,-0.99386,-0.008848,0.019841,0.005456,0.001762,-0.016284,0.052191,12.57932,1.742023,25,38.934699,-77.043974,2000,-1,-1,58.325417
541376567.1,0.057922,-0.063278,-0.994125,0.069708,0.086174,-0.007759,0.069393,-0.086068,-0.99387,-0.016705,0.026909,0.00658,0.007046,-0.030051,0.071432,12.984425,2.147127,25,38.934699,-77.043974,2000,-1,-1,58.325417
541376567.1,0.062958,-0.071335,-0.9935,0.067872,0.085413,-0.006817,0.067573,-0.085309,-0.994061,-0.00965,0.022031,-0.000065,0.007026,-0.051295,0.087441,12.984425,2.147127,25,38.934699,-77.043974,2000,-1,-1,58.325417
541376567.1,0.061234,-0.07309,-0.982727,0.065922,0.084186,-0.00573,0.065641,-0.084087,-0.994294,-0.002683,0.012752,0.000794,0.014458,-0.059742,0.101356,12.995953,2.158655,25,38.934699,-77.043974,2000,-1,-1,58.325417
541376567.2,0.059723,-0.073914,-0.975983,0.064489,0.083078,-0.00459,0.064222,-0.082982,-0.994479,-0.002989,0.009893,0.011752,0.015495,-0.066103,0.110969,12.995953,2.158655,25,38.934699,-77.043974,2000,-1,-1,58.325417
541376567.2,0.059036,-0.077011,-0.974045,0.063897,0.08265,-0.003464,0.063635,-0.082556,-0.994553,-0.003913,0.008643,0.01857,-0.000501,-0.082133,0.114088,12.995953,2.158655,25,38.934699,-77.043974,2000,-1,-1,58.325417
541376567.2,0.055771,-0.0811,-0.973831,0.064304,0.082656,-0.002489,0.064041,-0.082562,-0.994526,-0.005004,0.005551,0.020481,-0.038861,-0.098301,0.103216,12.985105,2.147807,25,38.934699,-77.043974,2000,-1,-1,58.325417
541376567.2,0.05098,-0.083832,-0.980377,0.064284,0.081783,-0.001616,0.064025,-0.081692,-0.994599,-0.008254,0.000592,0.020768,-0.083624,-0.108131,0.086975,12.985105,2.147807,25,38.934699,-77.043974,2000,-1,-1,58.325417
541376567.2,0.049011,-0.084564,-0.988998,0.062987,0.079739,-0.000782,0.062745,-0.079655,-0.994846,-0.011766,-0.004177,0.014469,-0.107062,-0.102961,0.070844,13.010216,2.172918,25,38.934699,-77.043974,2000,-1,-1,58.325417
541376567.2,0.047897,-0.085236,-0.993408,0.061476,0.07745,-0.000098,0.061253,-0.077373,-0.995119,-0.012241,-0.007192,0.006121,-0.098511,-0.07423,0.053811,13.010216,2.172918,25,38.934699,-77.043974,2000,-1,-1,58.325417
541376567.2,0.048416,-0.083344,-0.995026,0.060737,0.075847,0.000427,0.060525,-0.075775,-0.995286,-0.012628,-0.009461,0.001878,-0.068631,-0.043251,0.043291,13.010216,2.172918,25,38.934699,-77.043974,2000,-1,-1,58.325417
541376567.2,0.048431,-0.079987,-0.994766,0.060508,0.075229,0.000919,0.0603,-0.075158,-0.995347,-0.011884,-0.008186,0.000321,-0.030235,-0.031342,0.049892,13.173011,2.335713,25,38.934699,-77.043974,2000,-1,-1,58.325417
541376567.2,0.047043,-0.077118,-0.991882,0.060163,0.075076,0.001508,0.059958,-0.075005,-0.995379,-0.011526,-0.004982,0.000613,-0.007824,-0.042905,0.061745,13.173011,2.335713,25,38.934699,-77.043974,2000,-1,-1,58.325417
541376567.2,0.048248,-0.074692,-0.995667,0.059558,0.075148,0.002176,0.059355,-0.075077,-0.99541,-0.012312,-0.002041,0.003527,0.001832,-0.067303,0.068193,13.173011,2.335713,25,38.934699,-77.043974,2000,-1,-1,58.325417
541376567.3,0.049835,-0.075882,-1.00116,0.058691,0.075359,0.002869,0.058491,-0.075287,-0.995445,-0.010243,0.000596,-0.000222,-0.002377,-0.090718,0.069233,13.163181,2.325884,20,38.934699,-77.043974,2000,-1,-1,58.325417
541376567.3,0.050247,-0.080704,-1.005524,0.057617,0.075698,0.003552,0.057421,-0.075626,-0.995482,-0.007585,-0.000256,-0.005678,-0.006621,-0.094999,0.066008,13.163181,2.325884,20,38.934699,-77.043974,2000,-1,-1,58.325417
541376567.3,0.044891,-0.083008,-1.007675,0.056461,0.076112,0.004184,0.056268,-0.076039,-0.995516,-0.006021,-0.004665,-0.010008,-0.002356,-0.079037,0.05856,13.132772,2.295475,20,38.934699,-77.043974,2000,-1,-1,58.325417
541376567.3,0.040405,-0.076599,-1.007492,0.055562,0.076566,0.004738,0.055371,-0.076491,-0.995532,-0.01048,-0.006517,-0.012144,0.005069,-0.04817,0.051131,13.132772,2.295475,20,38.934699,-77.043974,2000,-1,-1,58.325417
541376567.3,0.039612,-0.074661,-1.009293,0.054956,0.077011,0.005278,0.054765,-0.076935,-0.995531,-0.01436,0.000336,-0.011961,0.004977,-0.019457,0.052206,13.132772,2.295475,20,38.934699,-77.043974,2000,-1,-1,58.325417
541376567.3,0.04158,-0.078232,-1.011261,0.054585,0.077276,0.00586,0.054395,-0.077199,-0.995531,-0.014783,0.002538,-0.013762,-0.004711,-0.004612,0.0575,13.118447,2.28115,20,38.934699,-77.043974,2000,-1,-1,58.325417
541376567.3,0.044968,-0.079971,-1.009262,0.054223,0.077324,0.006515,0.054034,-0.077247,-0.995547,-0.012454,-0.000985,-0.015714,-0.010071,-0.009947,0.063878,13.118447,2.28115,20,38.934699,-77.043974,2000,-1,-1,58.325417
541376567.3,0.045853,-0.078979,-1.003647,0.053787,0.077291,0.007186,0.0536,-0.077214,-0.995573,-0.008632,-0.002757,-0.013689,-0.004707,-0.015238,0.062836,13.128934,2.291636,20,38.934699,-77.043974,2000,-1,-1,58.325417
541376567.3,0.044403,-0.081024,-1.001373,0.053393,0.077312,0.007821,0.053208,-0.077235,-0.995592,-0.007355,-0.001745,-0.008055,0.012397,-0.016213,0.061853,13.128934,2.291636,20,38.934699,-77.043974,2000,-1,-1,58.325417
541376567.3,0.044983,-0.085785,-1.00351,0.052971,0.077678,0.00836,0.052787,-0.0776,-0.995586,-0.007804,-0.008185,-0.007923,0.039163,-0.013964,0.050242,13.087979,2.250682,20,38.934699,-77.043974,2000,-1,-1,58.325417
541376567.4,0.043961,-0.086105,-1.002563,0.052835,0.078336,0.008806,0.052648,-0.078256,-0.995542,-0.007665,-0.007529,-0.007967,0.071218,-0.008484,0.047201,13.087979,2.250682,20,38.934699,-77.043974,2000,-1,-1,58.325417
541376567.4,0.042496,-0.080719,-0.999847,0.052473,0.079405,0.009264,0.052284,-0.079322,-0.995477,-0.008323,-0.006784,-0.007086,0.097912,-0.006214,0.04947,13.087979,2.250682,20,38.934699,-77.043974,2000,-1,-1,58.325417
541376567.4,0.038452,-0.076981,-0.994781,0.051963,0.080412,0.009874,0.051771,-0.080326,-0.995423,-0.009276,-0.000393,-0.004424,0.110645,-0.008247,0.067683,13.067422,2.230124,20,38.934699,-77.043974,2000,-1,-1,58.325417
541376567.4,0.039627,-0.081116,-0.99173,0.051323,0.081326,0.010637,0.051131,-0.081237,-0.995382,-0.012679,0.004256,0.000601,0.104218,-0.025276,0.080459,13.067422,2.230124,20,38.934594,-77.043963,65,-1,-1,58.020481
541376567.4,0.041183,-0.087006,-0.988632,0.050559,0.082168,0.011433,0.050367,-0.082076,-0.995353,-0.01074,0.00096,0.003623,0.088249,-0.044501,0.080374,12.993084,2.155787,20,38.934594,-77.043963,65,-1,-1,58.020481
541376567.4,0.040756,-0.089355,-0.984161,0.049796,0.082933,0.012177,0.049605,-0.082838,-0.995328,-0.008421,-0.004168,0.006696,0.078698,-0.055195,0.073918,12.993084,2.155787,20,38.934594,-77.043963,65,-1,-1,58.020481
541376567.4,0.036728,-0.088715,-0.983582,0.049041,0.083544,0.012802,0.048851,-0.083447,-0.995314,-0.008094,-0.005909,0.011153,0.067018,-0.057402,0.061047,12.993084,2.155787,20,38.934594,-77.043963,65,-1,-1,58.020481
541376567.4,0.032593,-0.08873,-0.983307,0.048354,0.084061,0.013259,0.048164,-0.083962,-0.995304,-0.011436,-0.004753,0.011723,0.052129,-0.049001,0.042824,12.945648,2.108351,20,38.934594,-77.043963,65,-1,-1,58.020481
541376567.4,0.031677,-0.089798,-0.984024,0.047804,0.084462,0.01354,0.047615,-0.084361,-0.995297,-0.015022,-0.004368,0.01199,0.030833,-0.041696,0.024569,12.945648,2.108351,20,38.934594,-77.043963,65,-1,-1,58.020481
541376567.4,0.032196,-0.092026,-0.984879,0.047319,0.084652,0.013691,0.047132,-0.084551,-0.995304,-0.015455,-0.005247,0.01128,0.011649,-0.035435,0.011663,12.932333,2.095036,20,38.934594,-77.043963,65,-1,-1,58.020481
541376567.5,0.029663,-0.090439,-0.981079,0.046861,0.084642,0.01375,0.046676,-0.084541,-0.995326,-0.01448,-0.007485,0.010448,0.010604,-0.03226,0.005252,12.932333,2.095036,20,38.934594,-77.043963,65,-1,-1,58.020481
541376567.5,0.031952,-0.087189,-0.976028,0.046387,0.084696,0.013772,0.046205,-0.084594,-0.995344,-0.016542,-0.005844,0.014265,0.028769,-0.026853,0.002141,12.932333,2.095036,20,38.934594,-77.043963,65,-1,-1,58.020481
541376567.5,0.033936,-0.083572,-0.973679,0.045881,0.085072,0.013797,0.045699,-0.084969,-0.995335,-0.013747,-0.002219,0.019307,0.049102,-0.039506,0.003307,12.959152,2.121855,20,38.934594,-77.043963,65,-1,-1,58.020481
541376567.5,0.033981,-0.084152,-0.97583,0.045249,0.085712,0.013796,0.045067,-0.085607,-0.995309,-0.011132,0.002035,0.021631,0.059856,-0.058594,0.00122,12.959152,2.121855,20,38.934594,-77.043963,65,-1,-1,58.020481
541376567.5,0.032028,-0.0858,-0.979599,0.044475,0.086448,0.013777,0.044294,-0.08634,-0.995281,-0.010313,0.002188,0.019451,0.062036,-0.06922,-0.000907,13.011671,2.174374,20,38.934594,-77.043963,65,-1,-1,58.020481
541376567.5,0.032501,-0.085129,-0.983139,0.043689,0.087099,0.013708,0.04351,-0.086989,-0.995259,-0.011482,0.001189,0.01566,0.054561,-0.059698,-0.007348,13.011671,2.174374,20,38.934594,-77.043963,65,-1,-1,58.020481
541376567.5,0.033951,-0.084229,-0.988083,0.042944,0.087537,0.013588,0.042767,-0.087426,-0.995253,-0.010266,0.002297,0.012114,0.031063,-0.051324,-0.013869,13.011671,2.174374,20,38.934594,-77.043963,65,-1,-1,58.020481
541376567.5,0.035706,-0.080948,-0.988281,0.042317,0.087742,0.01346,0.042142,-0.087629,-0.995261,-0.008191,0.003401,0.007178,0.008581,-0.038679,-0.01291,13.037054,2.199757,20,38.934594,-77.043963,65,-1,-1,58.020481
541376567.5,0.035004,-0.076462,-0.984375,0.041871,0.087803,0.013434,0.041697,-0.08769,-0.995275,-0.005992,0.006743,0.006993,-0.007558,-0.021731,-0.001242,13.037054,2.199757,20,38.934594,-77.043963,65,-1,-1,58.020481
541376567.5,0.035385,-0.075027,-0.985519,0.041502,0.087762,0.01358,0.04133,-0.087649,-0.995294,-0.006326,0.011187,0.010919,-0.013022,-0.011099,0.015817,13.037054,2.199757,20,38.934594,-77.043963,65,-1,-1,58.020481
541376567.6,0.037384,-0.076767,-0.989563,0.041203,0.087709,0.013897,0.041033,-0.087597,-0.995311,-0.005648,0.012569,0.009791,-0.005632,-0.011035,0.032937,13.040472,2.203175,20,38.934594,-77.043963,65,-1,-1,58.020481
541376567.6,0.039017,-0.080139,-0.98494,0.04095,0.087822,0.014293,0.040781,-0.087709,-0.995311,-0.003397,0.010942,0.005748,0.021037,-0.00982,0.040544,13.040472,2.203175,20,38.934594,-77.043963,65,-1,-1,58.020481
541376567.6,0.038528,-0.081207,-0.976242,0.040705,0.088201,0.014749,0.040535,-0.088087,-0.995288,-0.001519,0.007948,0.010348,0.04451,-0.009687,0.047067,13.040472,2.203175,20,38.934594,-77.043963,65,-1,-1,58.020481
541376567.6,0.037048,-0.081772,-0.976303,0.040328,0.088715,0.015235,0.040159,-0.088599,-0.995257,-0.00163,0.007392,0.019015,0.05202,-0.025595,0.050303,12.993148,2.15585,20,38.934594,-77.043963,65,-1,-1,58.020481
541376567.6,0.037048,-0.08194,-0.978333,0.039728,0.089182,0.01577,0.039559,-0.089064,-0.99524,-0.002511,0.007292,0.018937,0.04566,-0.05008,0.054536,12.928796,2.091498,20,38.934594,-77.043963,65,-1,-1,58.020481
541376567.6,0.036118,-0.082611,-0.976074,0.039004,0.089572,0.01632,0.038837,-0.089453,-0.995234,-0.001789,0.007513,0.016901,0.043541,-0.059659,0.056658,12.928796,2.091498,20,38.934594,-77.043963,65,-1,-1,58.020481
541376567.6,0.031738,-0.084229,-0.973755,0.038354,0.0899,0.016862,0.03819,-0.089779,-0.995229,-0.002072,0.007168,0.019155,0.04247,-0.053289,0.053452,12.928796,2.091498,20,38.934594,-77.043963,65,-1,-1,58.020481
541376567.6,0.030731,-0.085907,-0.976837,0.037744,0.090165,0.017345,0.037581,-0.090043,-0.995229,-0.005843,0.005814,0.021474,0.042497,-0.051171,0.047046,12.848886,2.011589,20,38.934594,-77.043963,65,-1,-1,58.020481
541376567.6,0.03064,-0.087357,-0.980988,0.037209,0.090367,0.017698,0.037049,-0.090244,-0.99523,-0.006318,0.004337,0.018393,0.03828,-0.045897,0.033147,12.848886,2.011589,20,38.934594,-77.043963,65,-1,-1,58.020481
541376567.6,0.030472,-0.087372,-0.983948,0.036822,0.09051,0.017916,0.036663,-0.090386,-0.995232,-0.006023,0.00303,0.014244,0.030827,-0.034257,0.021368,12.848886,2.011589,20,38.934594,-77.043963,65,-1,-1,58.020481
541376567.7,0.027283,-0.084991,-0.984604,0.036623,0.090653,0.018128,0.036465,-0.090529,-0.995226,-0.005993,0.003157,0.011278,0.025423,-0.017267,0.023481,12.795406,1.958109,20,38.934594,-77.043963,65,-1,-1,58.020481
541376567.7,0.028,-0.081879,-0.984879,0.036602,0.090694,0.018382,0.036443,-0.09057,-0.995223,-0.00916,0.005578,0.010619,0.011462,0.000743,0.026619,12.795406,1.958109,20,38.934594,-77.043963,65,-1,-1,58.020481
541376567.7,0.032761,-0.082001,-0.990585,0.036668,0.090578,0.018642,0.03651,-0.090454,-0.995231,-0.00851,0.008575,0.010353,-0.006725,0.008092,0.02653,12.765592,1.928294,20,38.934594,-77.043963,65,-1,-1,58.020481
541376567.7,0.03421,-0.086975,-0.992035,0.036721,0.090406,0.018916,0.036563,-0.090283,-0.995245,-0.003802,0.008282,0.004659,-0.006724,0.005966,0.027598,12.765592,1.928294,20,38.934594,-77.043963,65,-1,-1,58.020481
541376567.7,0.03656,-0.085785,-0.989044,0.036725,0.09038,0.01923,0.036567,-0.090257,-0.995247,-0.002357,0.003282,0.003212,0.009288,0.001805,0.033015,12.765592,1.928294,20,38.934594,-77.043963,65,-1,-1,58.020481
541376567.7,0.033722,-0.081985,-0.98909,0.036609,0.090561,0.019603,0.03645,-0.090437,-0.995235,0.00011,0.004652,0.006191,0.026369,-0.004477,0.039504,12.717319,1.880022,20,38.934594,-77.043963,65,-1,-1,58.020481
541376567.7,0.031647,-0.085007,-0.989532,0.03638,0.090881,0.020069,0.036222,-0.090756,-0.995214,-0.0025,0.00877,0.006124,0.034892,-0.012925,0.049154,12.717319,1.880022,20,38.934594,-77.043963,65,-1,-1,58.020481
541376567.7,0.033081,-0.087143,-0.986786,0.036073,0.091199,0.020581,0.035915,-0.091072,-0.995196,-0.004268,0.006066,0.005664,0.02956,-0.018268,0.050193,12.717319,1.880022,20,38.934594,-77.043963,65,-1,-1,58.020481
541376567.7,0.034897,-0.088867,-0.989365,0.035694,0.091331,0.021065,0.035538,-0.091205,-0.995198,-0.002457,0.004062,0.008412,0.010374,-0.030069,0.047959,12.650741,1.813443,20,38.934594,-77.043963,65,-1,-1,58.020481
541376567.7,0.032028,-0.092377,-0.995651,0.035116,0.091404,0.02158,0.034963,-0.091277,-0.995212,-0.000066,0.00241,0.005847,0.016374,-0.04388,0.053202,12.650741,1.813443,20,38.934594,-77.043963,65,-1,-1,58.020481
541376567.8,0.031586,-0.094955,-0.991028,0.034613,0.091689,0.022113,0.034461,-0.091561,-0.995203,-0.002433,-0.000816,-0.000448,0.048384,-0.03095,0.054433,12.583014,1.745717,20,38.934594,-77.043963,65,-1,-1,58.020481
541376567.8,0.034485,-0.09668,-0.986618,0.034328,0.09231,0.022659,0.034176,-0.092179,-0.995156,-0.00259,-0.002776,0.004128,0.081456,-0.018013,0.056736,12.583014,1.745717,20,38.934594,-77.043963,65,-1,-1,58.020481
541376567.8,0.030807,-0.096375,-0.986938,0.034125,0.093222,0.023219,0.033971,-0.093087,-0.995078,0.000514,-0.003593,0.00846,0.098522,-0.013665,0.060026,12.583014,1.745717,20,38.934594,-77.043963,65,-1,-1,58.020481
541376567.8,0.027634,-0.096481,-0.983139,0.034004,0.094093,0.02381,0.033848,-0.093954,-0.995001,-0.00304,-0.00242,0.008062,0.089951,-0.009453,0.062119,12.512818,1.675521,20,38.934594,-77.043963,65,-1,-1,58.020481
541376567.8,0.024414,-0.096893,-0.981979,0.033886,0.094579,0.024408,0.033728,-0.094438,-0.994959,-0.006094,-0.002043,0.01182,0.051482,-0.006465,0.060861,12.512818,1.675521,20,38.934594,-77.043963,65,-1,-1,58.020481
541376567.8,0.024353,-0.097992,-0.986511,0.033743,0.094606,0.02494,0.033586,-0.094465,-0.994962,-0.009172,-0.002428,0.012982,-0.000817,-0.006755,0.049923,12.429319,1.592022,20,38.934594,-77.043963,65,-1,-1,58.020481
541376567.8,0.025772,-0.09845,-0.990768,0.033651,0.094143,0.025369,0.033496,-0.094004,-0.995008,-0.009143,-0.003987,0.008497,-0.04992,-0.003838,0.039002,12.429319,1.592022,20,38.934594,-77.043963,65,-1,-1,58.020481
541376567.8,0.026871,-0.102753,-0.992706,0.033666,0.093366,0.025698,0.033513,-0.093231,-0.99508,-0.007741,-0.005219,0.004312,-0.077669,0.004507,0.028189,12.376385,1.539087,20,38.934594,-77.043963,65,-1,-1,58.020481
541376567.8,0.028412,-0.105988,-0.992645,0.033711,0.092608,0.025896,0.03356,-0.092476,-0.995149,-0.006689,-0.010277,0.002443,-0.072267,0.008768,0.014337,12.376385,1.539087,20,38.934594,-77.043963,65,-1,-1,58.020481
541376567.8,0.027893,-0.100891,-0.990417,0.03377,0.092118,0.026008,0.033621,-0.091988,-0.995192,-0.005209,-0.014,0.002547,-0.044459,0.008906,0.009138,12.376385,1.539087,20,38.934594,-77.043963,65,-1,-1,58.020481
541376567.9,0.024231,-0.096725,-0.986221,0.033914,0.091994,0.026225,0.033765,-0.091865,-0.995199,-0.005871,-0.009026,0.004781,-0.011443,0.016547,0.02532,12.363552,1.526255,20,38.934594,-77.043963,65,-1,-1,58.020481
541376567.9,0.024109,-0.098297,-0.983704,0.034028,0.092152,0.02661,0.033877,-0.092022,-0.995181,-0.009646,-0.004704,0.008959,0.01411,0.018832,0.041463,12.363552,1.526255,20,38.934594,-77.043963,65,-1,-1,58.020481
541376567.9,0.026764,-0.100082,-0.982819,0.034105,0.092499,0.027097,0.033952,-0.092367,-0.995146,-0.009843,-0.00593,0.011442,0.02902,0.019986,0.050079,12.301826,1.464529,20,38.934594,-77.043963,65,-1,-1,58.020481
541376567.9,0.026031,-0.099564,-0.979828,0.034136,0.092869,0.027586,0.033982,-0.092735,-0.995111,-0.007218,-0.007347,0.012292,0.025829,0.018903,0.047927,12.301826,1.464529,20,38.934594,-77.043963,65,-1,-1,58.020481
541376567.9,0.023804,-0.100113,-0.977524,0.034164,0.093105,0.02803,0.034009,-0.092971,-0.995088,-0.007977,-0.006593,0.01526,0.010905,0.01669,0.042514,12.301826,1.464529,20,38.934594,-77.043963,65,-1,-1,58.020481
541376567.9,0.023117,-0.100052,-0.97937,0.034117,0.093164,0.02836,0.033962,-0.09303,-0.995084,-0.010159,-0.007083,0.01756,-0.003942,0.00383,0.028557,12.233017,1.39572,20,38.934594,-77.043963,65,-1,-1,58.020481
541376567.9,0.021606,-0.100006,-0.977478,0.03404,0.093186,0.02853,0.033885,-0.093051,-0.995085,-0.010768,-0.007001,0.015714,-0.011326,0.001638,0.011436,12.233017,1.39572,20,38.934594,-77.043963,65,-1,-1,58.020481
541376567.9,0.017517,-0.100281,-0.975693,0.033999,0.093202,0.028575,0.033844,-0.093067,-0.995084,-0.012238,-0.006939,0.017606,-0.014481,0.001607,0.001811,12.210377,1.373079,20,38.934594,-77.043963,65,-1,-1,58.020481
541376567.9,0.018509,-0.098969,-0.978317,0.033933,0.093121,0.028568,0.033779,-0.092986,-0.995094,-0.016262,-0.007294,0.019401,-0.018717,-0.001613,-0.003549,12.210377,1.373079,20,38.934594,-77.043963,65,-1,-1,58.020481
541376567.9,0.024643,-0.097122,-0.979324,0.03375,0.092993,0.028495,0.033598,-0.092859,-0.995112,-0.015089,-0.006109,0.016795,-0.017584,-0.010126,-0.01102,12.210377,1.373079,20,38.934594,-77.043963,65,-1,-1,58.020481
541376568,0.029144,-0.094711,-0.980011,0.033516,0.092923,0.028376,0.033365,-0.09279,-0.995127,-0.008722,-0.004333,0.015802,-0.011146,-0.015413,-0.013124,12.221696,1.384398,20,38.934594,-77.043963,65,-1,-1,58.020481
541376568,0.0298,-0.091843,-0.978226,0.03335,0.092924,0.02835,0.0332,-0.09279,-0.995132,-0.004056,-0.001921,0.015121,-0.008027,-0.008996,-0.000295,12.221696,1.384398,20,38.934594,-77.043963,65,-1,-1,58.020481
541376568,0.031433,-0.089661,-0.978012,0.033249,0.092925,0.028502,0.0331,-0.092792,-0.995135,-0.003299,0.000949,0.01691,-0.011364,-0.000476,0.019977,12.229054,1.391757,20,38.934594,-77.043963,65,-1,-1,58.020481
541376568,0.034454,-0.085083,-0.985199,0.03308,0.092882,0.028786,0.032932,-0.092748,-0.995145,-0.001498,0.003088,0.017133,-0.0178,-0.006877,0.028485,12.229054,1.391757,20,38.934594,-77.043963,65,-1,-1,58.020481
541376568,0.03418,-0.088989,-0.985626,0.032862,0.092777,0.029158,0.032715,-0.092644,-0.995162,0.00174,0.007561,0.009963,-0.021053,-0.007943,0.038077,12.229054,1.391757,20,38.934594,-77.043963,65,-1,-1,58.020481
541376568,0.033081,-0.093063,-0.98465,0.032746,0.092679,0.029585,0.032599,-0.092547,-0.995175,0.00158,0.003558,0.009548,-0.020034,0.004827,0.040221,12.193981,1.356684,20,38.934594,-77.043963,65,-1,-1,58.020481
541376568,0.033813,-0.092712,-0.990555,0.032659,0.092546,0.029946,0.032513,-0.092414,-0.99519,0.000568,-0.000649,0.01054,-0.024282,0.011172,0.03166,12.193981,1.356684,20,38.934594,-77.043963,65,-1,-1,58.020481
541376568,0.033249,-0.091415,-0.989105,0.032735,0.092385,0.030193,0.03259,-0.092254,-0.995202,0.001224,-0.000459,0.004647,-0.025337,0.0271,0.019915,12.149681,1.312384,20,38.934594,-77.043963,65,-1,-1,58.020481
541376568,0.031006,-0.086487,-0.989151,0.033002,0.092177,0.030404,0.032856,-0.092047,-0.995212,0.000393,0.000631,0.006107,-0.029637,0.03771,0.018828,12.149681,1.312384,20,38.934594,-77.043963,65,-1,-1,58.020481
541376568,0.028976,-0.086288,-0.991791,0.033292,0.091858,0.030684,0.033145,-0.091729,-0.995232,-0.00214,0.005242,0.006081,-0.039284,0.031294,0.028388,12.149681,1.312384,20,38.934594,-77.043963,65,-1,-1,58.020481
541376568.1,0.03215,-0.08551,-0.991257,0.033465,0.091476,0.031056,0.033319,-0.091349,-0.995261,-0.004343,0.00506,0.003471,-0.042499,0.019592,0.03691,12.123952,1.286654,20,38.934594,-77.043963,65,-1,-1,58.020481
541376568.1,0.034195,-0.085266,-0.991104,0.033425,0.091107,0.031473,0.03328,-0.090981,-0.995296,-0.00113,0.00547,0.00404,-0.03603,-0.003766,0.039072,12.123952,1.286654,20,38.934594,-77.043963,65,-1,-1,58.020481
541376568.1,0.033234,-0.089462,-0.98912,0.033196,0.090827,0.031869,0.033053,-0.090702,-0.995329,0.001142,0.005436,0.004225,-0.01993,-0.026015,0.038078,12.061642,1.224344,20,38.934594,-77.043963,65,-1,-1,58.020481
541376568.1,0.029968,-0.09082,-0.987823,0.032863,0.09079,0.032183,0.032722,-0.090665,-0.995344,0.000512,0.001203,0.006223,0.000437,-0.03124,0.028569,12.061642,1.224344,20,38.934594,-77.043963,65,-1,-1,58.020481
541376568.1,0.025955,-0.088089,-0.99028,0.032617,0.090948,0.032403,0.032476,-0.090823,-0.995337,-0.002508,0.000003,0.007514,0.013271,-0.020552,0.020094,12.061642,1.224344,20,38.934594,-77.043963,65,-1,-1,58.020481
541376568.1,0.024826,-0.087448,-0.992889,0.032603,0.091114,0.032556,0.032462,-0.090988,-0.995323,-0.006507,0.002899,0.005043,0.013217,0.004964,0.01583,12.017982,1.180684,20,38.934594,-77.043963,65,-1,-1,58.020481
541376568.1,0.024689,-0.088287,-0.991241,0.032762,0.091214,0.032739,0.03262,-0.091088,-0.995308,-0.007794,0.003639,0.002419,0.005673,0.02088,0.019,12.017982,1.180684,20,38.934594,-77.043963,65,-1,-1,58.020481
541376568.1,0.027206,-0.086441,-0.984665,0.033005,0.09117,0.032985,0.032862,-0.091043,-0.995305,-0.008173,0.002756,0.004063,-0.004002,0.029347,0.02536,11.991321,1.154023,20,38.934594,-77.043963,65,-1,-1,58.020481
541376568.1,0.029358,-0.089645,-0.979324,0.033184,0.090995,0.03327,0.033041,-0.090869,-0.995315,-0.005835,0.004428,0.01065,-0.018952,0.020766,0.028486,11.991321,1.154023,20,38.934594,-77.043963,65,-1,-1,58.020481
541376568.1,0.028473,-0.090729,-0.979675,0.033232,0.090665,0.03355,0.033089,-0.09054,-0.995343,-0.003731,0.000895,0.016019,-0.032777,0.004738,0.02521,11.991321,1.154023,20,38.934594,-77.043963,65,-1,-1,58.020481
541376568.2,0.025986,-0.091278,-0.982178,0.033179,0.090186,0.033785,0.033038,-0.090064,-0.995388,-0.004565,-0.000665,0.015713,-0.045544,-0.00597,0.020873,11.944942,1.107644,20,38.934594,-77.043963,65,-1,-1,58.020481
541376568.2,0.022552,-0.092499,-0.987122,0.033057,0.089703,0.033978,0.032918,-0.089583,-0.995435,-0.006933,-0.001696,0.013258,-0.048708,-0.012374,0.016585,11.944942,1.107644,20,38.934594,-77.043963,65,-1,-1,58.020481
541376568.2,0.022552,-0.09314,-0.990021,0.032906,0.089306,0.03413,0.032769,-0.089188,-0.995476,-0.010216,-0.003311,0.008354,-0.039064,-0.012331,0.011294,11.916648,1.07935,20,38.934594,-77.043963,65,-1,-1,58.020481
541376568.2,0.024155,-0.091995,-0.990677,0.03271,0.089061,0.034204,0.032575,-0.088943,-0.995504,-0.010022,-0.004196,0.005483,-0.018726,-0.013298,0.004989,11.916648,1.07935,20,38.934594,-77.043963,65,-1,-1,58.020481
541376568.2,0.025085,-0.090668,-0.989822,0.032537,0.089018,0.034246,0.032403,-0.088901,-0.995513,-0.008248,-0.003094,0.004836,0.00157,-0.010003,0.004024,11.916648,1.07935,20,38.934594,-77.043963,65,-1,-1,58.020481
541376568.2,0.024353,-0.089325,-0.988297,0.032444,0.089157,0.03431,0.03231,-0.089039,-0.995504,-0.007224,-0.001629,0.005682,0.016482,0.001776,0.006236,11.902641,1.065344,20,38.934594,-77.043963,65,-1,-1,58.020481
541376568.2,0.026962,-0.089493,-0.987442,0.03247,0.0893,0.034404,0.032335,-0.089181,-0.99549,-0.007982,-0.000144,0.007194,0.013238,0.009208,0.009425,11.902641,1.065344,20,38.934594,-77.043963,65,-1,-1,58.020481
541376568.2,0.02739,-0.092682,-0.986649,0.032556,0.089336,0.034527,0.032421,-0.089217,-0.995484,-0.005458,-0.000276,0.008042,-0.001747,0.012324,0.012555,11.876524,1.039227,20,38.934594,-77.043963,65,-1,-1,58.020481
541376568.2,0.027328,-0.094666,-0.98349,0.032636,0.089269,0.034669,0.0325,-0.08915,-0.995488,-0.005111,-0.003531,0.008839,-0.011369,0.012276,0.013574,11.876524,1.039227,20,38.934594,-77.043963,65,-1,-1,58.020481
541376568.2,0.02652,-0.094025,-0.979889,0.032701,0.089194,0.034798,0.032565,-0.089076,-0.995492,-0.005236,-0.00559,0.012002,-0.011357,0.012272,0.011439,11.876524,1.039227,20,38.934594,-77.043963,65,-1,-1,58.020481
541376568.3,0.026306,-0.091431,-0.977203,0.03273,0.089147,0.034918,0.032594,-0.089029,-0.995496,-0.006074,-0.004996,0.015607,-0.008143,0.011224,0.010387,11.839517,1.002219,20,38.934594,-77.043963,65,-1,-1,58.020481
541376568.3,0.025635,-0.090881,-0.979568,0.032681,0.089086,0.035012,0.032546,-0.088969,-0.995503,-0.00624,-0.002462,0.018299,-0.011301,0.002694,0.006098,11.839517,1.002219,20,38.934594,-77.043963,65,-1,-1,58.020481
541376568.3,0.026535,-0.090744,-0.985992,0.032505,0.088907,0.035027,0.032371,-0.08879,-0.995524,-0.006737,-0.002091,0.015956,-0.024032,-0.014399,-0.001444,11.82274,0.985442,20,38.934594,-77.043963,65,-1,-1,58.020481
541376568.3,0.030014,-0.092453,-0.990219,0.032243,0.08861,0.034979,0.032111,-0.088494,-0.995559,-0.005576,-0.00225,0.009567,-0.033598,-0.021901,-0.006832,11.82274,0.985442,20,38.934594,-77.043963,65,-1,-1,58.020481
541376568.3,0.030106,-0.092514,-0.992294,0.031983,0.088282,0.034916,0.031853,-0.088168,-0.995596,-0.001839,-0.004285,0.005377,-0.032539,-0.018705,-0.006826,11.82274,0.985442,20,38.934594,-77.043963,65,-1,-1,58.020481
541376568.3,0.028183,-0.089554,-0.991455,0.031821,0.088031,0.034929,0.031692,-0.087918,-0.995623,-0.001587,-0.004596,0.003329,-0.024067,-0.010139,0.002828,11.832278,0.994981,20,38.934594,-77.043963,65,-1,-1,58.020481
541376568.3,0.029877,-0.087616,-0.989853,0.031772,0.087935,0.035052,0.031644,-0.087822,-0.995633,-0.003461,-0.001732,0.004178,-0.012411,0.001638,0.014634,11.832278,0.994981,20,38.934594,-77.043963,65,-1,-1,58.020481
541376568.3,0.031586,-0.088913,-0.991837,0.031819,0.08793,0.035258,0.03169,-0.087817,-0.995632,-0.001814,0.000201,0.00578,-0.007136,0.011247,0.022137,11.809314,0.972016,20,38.934594,-77.043963,65,-1,-1,58.020481
541376568.3,0.03334,-0.091888,-0.993652,0.031872,0.087966,0.035507,0.031743,-0.087853,-0.995628,-0.000158,-0.00106,0.003791,-0.001811,0.01128,0.025366,11.809314,0.972016,20,38.934594,-77.043963,65,-1,-1,58.020481
541376568.3,0.029068,-0.09082,-0.990372,0.031913,0.088084,0.035764,0.031784,-0.087971,-0.995616,0.001556,-0.003918,0.001963,0.009945,0.010278,0.025424,11.809314,0.972016,20,38.934594,-77.043963,65,-1,-1,58.020481
541376568.4,0.022552,-0.087784,-0.986893,0.031892,0.088329,0.036013,0.031762,-0.088214,-0.995595,-0.002694,-0.002606,0.005223,0.022789,0.002902,0.025487,11.766064,0.928766,20,38.934594,-77.043963,65,-1,-1,58.020481
541376568.4,0.021744,-0.088562,-0.986633,0.03181,0.088581,0.036228,0.03168,-0.088465,-0.995575,-0.009127,0.000681,0.008683,0.021771,-0.004556,0.020141,11.766064,0.928766,20,38.934594,-77.043963,65,-1,-1,58.020481
541376568.4,0.026184,-0.092529,-0.986221,0.031669,0.08878,0.036324,0.031539,-0.088663,-0.995562,-0.009795,0.000101,0.008929,0.012251,-0.014196,0.007279,11.738849,0.901551,20,38.934594,-77.043963,65,-1,-1,58.020481
541376568.4,0.026215,-0.09491,-0.984726,0.031437,0.088844,0.036306,0.031308,-0.088727,-0.995564,-0.005124,-0.003802,0.009342,0.000583,-0.023844,-0.003459,11.738849,0.901551,20,38.934594,-77.043963,65,-1,-1,58.020481
541376568.4,0.027878,-0.093246,-0.982239,0.03119,0.088792,0.036199,0.031062,-0.088675,-0.995576,-0.004847,-0.006234,0.01085,-0.007924,-0.022838,-0.012042,11.738849,0.901551,20,38.934594,-77.043963,65,-1,-1,58.020481
541376568.4,0.028641,-0.090073,-0.982422,0.031043,0.088646,0.036077,0.030917,-0.08853,-0.995594,-0.003039,-0.004717,0.013355,-0.016503,-0.012249,-0.012082,11.744078,0.90678,20,38.934594,-77.043963,65,-1,-1,58.020481
541376568.4,0.027802,-0.088837,-0.985291,0.030976,0.088397,0.035989,0.03085,-0.088282,-0.995618,-0.00221,-0.001791,0.013196,-0.029366,-0.005929,-0.007874,11.744078,0.90678,20,38.934594,-77.043963,65,-1,-1,58.020481
541376568.4,0.028702,-0.089661,-0.985123,0.031003,0.088104,0.03601,0.030878,-0.08799,-0.995643,-0.003077,-0.000847,0.010352,-0.032659,0.002579,0.003856,11.738797,0.9015,20,38.934594,-77.043963,65,-1,-1,58.020481
541376568.4,0.030548,-0.091187,-0.985825,0.031055,0.087845,0.036069,0.03093,-0.087732,-0.995664,-0.002228,-0.001929,0.010541,-0.026261,0.006866,0.003889,11.738797,0.9015,20,38.934594,-77.043963,65,-1,-1,58.020481
541376568.4,0.033234,-0.088821,-0.989029,0.031074,0.0877,0.036082,0.03095,-0.087588,-0.995676,-0.000401,-0.003599,0.009851,-0.010209,0.008005,-0.001369,11.738797,0.9015,20,38.934594,-77.043963,65,-1,-1,58.020481
541376568.5,0.030289,-0.084305,-0.990158,0.031107,0.087696,0.036064,0.030982,-0.087584,-0.995675,0.002252,-0.001238,0.006646,0.000466,0.011251,-0.001315,11.719036,0.881739,20,38.934594,-77.043963,65,-1,-1,58.020481
541376568.5,0.026215,-0.083755,-0.990524,0.031242,0.087766,0.036101,0.031117,-0.087653,-0.995665,-0.000828,0.003348,0.005507,0.002547,0.018716,0.005104,11.719036,0.881739,20,38.934594,-77.043963,65,-1,-1,58.020481
541376568.5,0.029495,-0.086288,-0.988693,0.031377,0.087807,0.036209,0.031251,-0.087694,-0.995657,-0.005036,0.003938,0.005133,-0.002828,0.016572,0.01255,11.701778,0.864481,20,38.934594,-77.043963,65,-1,-1,58.020481
541376568.5,0.033417,-0.090088,-0.981567,0.031442,0.087826,0.036333,0.031316,-0.087713,-0.995653,-0.00182,0.001425,0.00696,-0.003862,0.006995,0.011475,11.701778,0.864481,20,38.934594,-77.043963,65,-1,-1,58.020481
541376568.5,0.0336,-0.090515,-0.975037,0.031418,0.087806,0.036436,0.031292,-0.087693,-0.995656,0.002125,-0.002395,0.014089,-0.005954,-0.002592,0.008259,11.701778,0.864481,20,38.934594,-77.043963,65,-1,-1,58.020481
541376568.5,0.031647,-0.090775,-0.973679,0.031312,0.087732,0.03654,0.031187,-0.08762,-0.995666,0.002413,-0.002896,0.020629,-0.010223,-0.007928,0.010372,11.67867,0.841372,20,38.934594,-77.043963,65,-1,-1,58.020481
541376568.5,0.029678,-0.089096,-0.974838,0.031132,0.087574,0.036667,0.031007,-0.087462,-0.995685,0.000639,-0.003313,0.022007,-0.021961,-0.016494,0.012446,11.67867,0.841372,20,38.934594,-77.043963,65,-1,-1,58.020481
541376568.5,0.029114,-0.086731,-0.978439,0.030919,0.087287,0.036818,0.030797,-0.087176,-0.995717,-0.001118,-0.00192,0.020878,-0.034778,-0.021875,0.014516,11.67867,0.841372,20,38.934594,-77.043963,65,-1,-1,58.020481
541376568.5,0.029419,-0.088333,-0.979584,0.030687,0.086921,0.03699,0.030566,-0.086812,-0.995756,-0.001452,0.000081,0.017316,-0.039057,-0.024021,0.01663,11.634603,0.797305,20,38.934594,-77.043963,65,-1,-1,58.020481
541376568.5,0.031876,-0.088272,-0.980698,0.030397,0.086505,0.037165,0.030279,-0.086397,-0.9958,-0.00086,-0.001936,0.016217,-0.040113,-0.026155,0.015556,11.634603,0.797305,20,38.934594,-77.043963,65,-1,-1,58.020481
541376568.6,0.032471,-0.086212,-0.98378,0.030104,0.086114,0.037303,0.029988,-0.086008,-0.995843,0.001888,-0.002264,0.015145,-0.036894,-0.025079,0.012369,11.603014,0.765717,20,38.934594,-77.043963,65,-1,-1,58.020481
541376568.6,0.031342,-0.084183,-0.98555,0.029862,0.085786,0.037476,0.029748,-0.085681,-0.995878,0.002723,-0.000531,0.012098,-0.03373,-0.020801,0.017725,11.603014,0.765717,20,38.934594,-77.043963,65,-1,-1,58.020481
541376568.6,0.031418,-0.081863,-0.994858,0.029659,0.085458,0.037706,0.029547,-0.085354,-0.995912,0.001795,0.001171,0.010363,-0.038031,-0.020815,0.023042,11.603014,0.765717,20,38.934594,-77.043963,65,-1,-1,58.020481
541376568.6,0.03215,-0.083984,-1.000092,0.029482,0.085172,0.03795,0.02937,-0.085069,-0.995942,0.002047,0.003206,0.001084,-0.031641,-0.017588,0.02521,11.566953,0.729655,20,38.934594,-77.043963,65,-1,-1,58.020481
541376568.6,0.033264,-0.085068,-0.995758,0.029386,0.085095,0.038234,0.029275,-0.084992,-0.995951,0.002875,0.001008,-0.00414,-0.007131,-0.003629,0.029606,11.566953,0.729655,20,38.934594,-77.043963,65,-1,-1,58.020481
541376568.6,0.031906,-0.085129,-0.991135,0.029433,0.08527,0.03854,0.029322,-0.085166,-0.995935,0.003943,0.000099,0.000177,0.019528,0.010338,0.031878,11.519057,0.68176,20,38.934594,-77.043963,65,-1,-1,58.020481
541376568.6,0.031036,-0.084366,-0.986267,0.029552,0.085603,0.03889,0.02944,-0.085499,-0.995903,0.002467,0.00037,0.004769,0.031249,0.013596,0.036208,11.519057,0.68176,20,38.934594,-77.043963,65,-1,-1,58.020481
541376568.6,0.032455,-0.084442,-0.984985,0.029585,0.085923,0.039255,0.029472,-0.085818,-0.995875,0.001564,0.001452,0.009608,0.023796,0.002925,0.037236,11.519057,0.68176,20,38.934594,-77.043963,65,-1,-1,58.020481
541376568.6,0.03183,-0.084915,-0.98642,0.029462,0.086043,0.03962,0.029349,-0.085937,-0.995868,0.003106,0.001495,0.010883,0.001424,-0.015274,0.034984,11.446454,0.609157,20,38.934594,-77.043963,65,-1,-1,58.020481
541376568.6,0.028351,-0.085678,-0.988937,0.02923,0.085887,0.039911,0.029118,-0.085781,-0.995888,0.002712,0.000866,0.009469,-0.02308,-0.023922,0.026319,11.446454,0.609157,20,38.934594,-77.043963,65,-1,-1,58.020481
541376568.7,0.025879,-0.08815,-0.99025,0.02904,0.085534,0.04012,0.02893,-0.085429,-0.995924,-0.000579,-0.000249,0.006987,-0.038019,-0.015506,0.017705,11.392042,0.554745,20,38.934594,-77.043963,65,-1,-1,58.020481
541376568.7,0.026001,-0.088821,-0.991074,0.029001,0.08515,0.040259,0.028892,-0.085048,-0.995958,-0.003013,-0.003102,0.005708,-0.034825,-0.000611,0.011319,11.392042,0.554745,20,38.934594,-77.043963,65,-1,-1,58.020481
541376568.7,0.027557,-0.088425,-0.990662,0.029062,0.084875,0.04039,0.028954,-0.084774,-0.995979,-0.002953,-0.004048,0.004906,-0.023106,0.006897,0.013514,11.392042,0.554745,20,38.934594,-77.043963,65,-1,-1,58.020481
541376568.7,0.029129,-0.087875,-0.988388,0.029155,0.084779,0.04057,0.029046,-0.084677,-0.995985,-0.001488,-0.003747,0.005323,-0.00711,0.008052,0.018933,11.363593,0.526296,20,38.934594,-77.043963,65,-1,-1,58.020481
541376568.7,0.029327,-0.086517,-0.987183,0.029208,0.084859,0.040812,0.029099,-0.084758,-0.995977,0.00003,-0.003118,0.007589,0.009956,0.004963,0.026491,11.363593,0.526296,20,38.934594,-77.043963,65,-1,-1,58.020481
541376568.7,0.030411,-0.0858,-0.98703,0.029205,0.084997,0.04109,0.029096,-0.084895,-0.995965,0.000232,-0.001623,0.008782,0.012098,-0.00034,0.028635,11.315884,0.478586,20,38.934594,-77.043963,65,-1,-1,58.020481
541376568.7,0.030609,-0.088562,-0.988693,0.029167,0.085125,0.041399,0.029057,-0.085022,-0.995955,0.001354,-0.000778,0.008925,0.00996,-0.005663,0.031826,11.315884,0.478586,20,38.934594,-77.043963,65,-1,-1,58.020481
541376568.7,0.029633,-0.089951,-0.987885,0.029062,0.085224,0.041748,0.028952,-0.08512,-0.99595,0.001657,-0.003442,0.007257,0.006754,-0.010992,0.035012,11.315884,0.478586,20,38.934594,-77.043963,65,-1,-1,58.020481
541376568.7,0.028,-0.089676,-0.984756,0.028889,0.08533,0.042071,0.02878,-0.085226,-0.995946,0.000852,-0.004724,0.008061,0.008919,-0.013114,0.030752,11.265153,0.427855,20,38.934594,-77.043963,65,-1,-1,58.020481
541376568.7,0.028,-0.089676,-0.984756,0.028811,0.0854,0.042216,0.028702,-0.085296,-0.995942,-0.000702,-0.00438,0.011186,0.008914,-0.009903,0.028619,11.265153,0.427855,20,38.934594,-77.043963,65,-1,-1,58.020481
541376568.8,0.025726,-0.087479,-0.986649,0.028641,0.085476,0.042529,0.028532,-0.085372,-0.995941,-0.003142,-0.002244,0.012237,-0.003863,-0.007858,0.018946,11.217682,0.380384,20,38.934594,-77.043963,65,-1,-1,58.020481
541376568.8,0.025726,-0.087479,-0.986649,0.028605,0.085464,0.04261,0.028497,-0.08536,-0.995943,-0.002771,-0.002119,0.009294,-0.007061,-0.004689,0.015728,11.217682,0.380384,20,38.934594,-77.043963,65,-1,-1,58.020481
541376568.8,0.027771,-0.09079,-0.989349,0.028641,0.085357,0.04276,0.028533,-0.085254,-0.995951,-0.000762,-0.005536,0.006601,-0.014573,0.008031,0.014626,11.217682,0.380384,20,38.934594,-77.043963,65,-1,-1,58.020481
541376568.8,0.028885,-0.08609,-0.982483,0.02886,0.085205,0.042996,0.028751,-0.085102,-0.995957,0.000347,-0.00555,0.010682,-0.008191,0.01551,0.015728,11.188949,0.351651,20,38.934594,-77.043963,65,-1,-1,58.020481
541376568.8,0.028732,-0.084854,-0.981674,0.028941,0.085164,0.043193,0.028832,-0.085061,-0.995958,0.000053,-0.001029,0.013476,-0.004981,0.004901,0.02108,11.188949,0.351651,20,38.934594,-77.043963,65,-1,-1,58.020481
541376568.8,0.027405,-0.084259,-0.982605,0.028922,0.085178,0.043447,0.028813,-0.085075,-0.995958,-0.000081,0.000221,0.014284,-0.002847,-0.003587,0.026426,11.15574,0.318442,20,38.934594,-77.043963,65,-1,-1,58.020481
541376568.8,0.026703,-0.083771,-0.98822,0.028818,0.08512,0.043689,0.02871,-0.085017,-0.995966,-0.001305,0.000758,0.013361,-0.011355,-0.011081,0.023179,11.15574,0.318442,20,38.934594,-77.043963,65,-1,-1,58.020481
541376568.8,0.027405,-0.084976,-0.99295,0.028703,0.084964,0.043885,0.028596,-0.084862,-0.995982,-0.001893,0.001091,0.007762,-0.020951,-0.006887,0.016726,11.116097,0.2788,20,38.934594,-77.043963,65,-1,-1,58.020481
541376568.8,0.027603,-0.083176,-0.993546,0.028738,0.084733,0.044029,0.028631,-0.084631,-0.996001,-0.001226,-0.000345,0.00305,-0.027396,0.010089,0.013495,11.116097,0.2788,20,38.934594,-77.043963,65,-1,-1,58.020481
541376568.8,0.026474,-0.079483,-0.996246,0.028888,0.084419,0.044219,0.028781,-0.084319,-0.996023,-0.001178,0.001143,0.002478,-0.034932,0.019628,0.018799,11.116097,0.2788,20,38.934594,-77.043963,65,-1,-1,58.020481
541376568.9,0.029785,-0.079315,-0.99678,0.029071,0.084147,0.044461,0.028964,-0.084048,-0.996041,-0.00249,0.004565,-0.000206,-0.029624,0.021791,0.024164,11.090458,0.25316,20,38.934594,-77.043963,65,-1,-1,58.020481
541376568.9,0.029785,-0.079315,-0.99678,0.029188,0.084094,0.044597,0.029081,-0.083994,-0.996042,0.000704,0.004679,-0.000739,-0.020028,0.025035,0.026348,11.090458,0.25316,20,38.934594,-77.043963,65,-1,-1,58.020481
541376568.9,0.031921,-0.081421,-0.991394,0.029413,0.084123,0.044874,0.029305,-0.084024,-0.996033,0.002617,0.002603,0.004639,0.007746,0.025182,0.027555,11.050988,0.213691,20,38.934594,-77.043963,65,-1,-1,58.020481
541376568.9,0.034042,-0.081558,-0.987228,0.029573,0.084344,0.04514,0.029464,-0.084244,-0.996009,0.004579,0.002686,0.008781,0.023811,0.01463,0.026564,11.050988,0.213691,20,38.934594,-77.043963,65,-1,-1,58.020481
541376568.9,0.028534,-0.07962,-0.987473,0.029612,0.084844,0.045603,0.029501,-0.084742,-0.995966,0.002512,0.003718,0.007502,0.032354,0.002989,0.034077,11.050988,0.213691,20,38.934594,-77.043963,65,-1,-1,58.020481
541376568.9,0.028534,-0.07962,-0.987473,0.029575,0.085011,0.045798,0.029464,-0.084908,-0.995953,-0.00093,0.005288,0.00848,0.032339,-0.001257,0.039415,11.003805,0.166508,20,38.934594,-77.043963,65,-1,-1,58.020481
541376568.9,0.02684,-0.077499,-0.986191,0.029525,0.085279,0.046226,0.029414,-0.085176,-0.995932,-0.002574,0.007676,0.009741,0.0227,0.000824,0.04257,11.003805,0.166508,20,38.934594,-77.043963,65,-1,-1,58.020481
541376568.9,0.024857,-0.078781,-0.985703,0.029523,0.085402,0.046678,0.029411,-0.085299,-0.995921,-0.004554,0.006517,0.010219,0.00772,0.006065,0.043565,10.939857,0.10256,20,38.934594,-77.043963,65,-1,-1,58.020481
541376568.9,0.024399,-0.082489,-0.984055,0.029629,0.085363,0.047081,0.029516,-0.085259,-0.995922,-0.005118,0.00277,0.011867,-0.006177,0.017681,0.03816,10.939857,0.10256,20,38.934594,-77.043963,65,-1,-1,58.020481
541376568.9,0.024185,-0.08403,-0.983612,0.029845,0.085159,0.047372,0.029732,-0.085057,-0.995932,-0.005547,0.001026,0.01232,-0.021094,0.026091,0.025276,10.939857,0.10256,20,38.934594,-77.043963,65,-1,-1,58.020481
541376569,0.023148,-0.084229,-0.983963,0.030101,0.084867,0.047569,0.029988,-0.084765,-0.99595,-0.006841,0.000537,0.011987,-0.028529,0.026039,0.016697,10.897862,0.060565,20,38.934594,-77.043963,65,-1,-1,58.020481
541376569,0.022476,-0.084961,-0.98349,0.030346,0.084594,0.047722,0.030233,-0.084494,-0.995965,-0.007756,-0.000467,0.012475,-0.024234,0.022868,0.014582,10.897862,0.060565,20,38.934594,-77.043963,65,-1,-1,58.020481
541376569,0.023697,-0.083084,-0.981689,0.030471,0.084449,0.047873,0.030358,-0.084348,-0.995974,-0.006661,0.001264,0.014284,-0.009237,0.00806,0.015721,10.868625,0.031327,20,38.934594,-77.043963,65,-1,-1,58.020481
541376569,0.024963,-0.080902,-0.979065,0.030445,0.084436,0.048032,0.030332,-0.084336,-0.995976,-0.005369,0.003434,0.016911,0.002552,-0.003575,0.015776,10.868625,0.031327,20,38.934594,-77.043963,65,-1,-1,58.020481
541376569,0.025955,-0.080414,-0.9785,0.030254,0.08445,0.048158,0.030142,-0.08435,-0.99598,-0.004187,0.003936,0.01748,0.003697,-0.021654,0.011507,10.868625,0.031327,20,38.934594,-77.043963,65,-1,-1,58.020481
541376569,0.027969,-0.081009,-0.98291,0.029965,0.084428,0.048266,0.029854,-0.084328,-0.995991,-0.001884,0.003319,0.013081,-0.000562,-0.024868,0.010417,10.84692,0.009623,20,38.934594,-77.043963,65,-1,-1,58.020481
541376569,0.028305,-0.084702,-0.984467,0.029743,0.084411,0.048405,0.029632,-0.084311,-0.995999,-0.001327,-0.00039,0.011532,-0.001681,-0.015297,0.014685,10.84692,0.009623,20,38.934594,-77.043963,65,-1,-1,58.020481
541376569,0.027603,-0.085007,-0.982956,0.029665,0.084423,0.048544,0.029555,-0.084323,-0.996,-0.001952,-0.000683,0.013044,0.000416,-0.0004,0.013631,10.820036,359.982727,20,38.934594,-77.043963,65,-1,-1,58.020481
541376569,0.027298,-0.083008,-0.983429,0.029704,0.084454,0.048758,0.029594,-0.084354,-0.995996,-0.002296,0.001346,0.012567,0.003543,0.009202,0.023259,10.820036,359.982727,20,38.934594,-77.043963,65,-1,-1,58.020481
541376569,0.025925,-0.082458,-0.983688,0.029777,0.0845,0.049043,0.029666,-0.0844,-0.99599,-0.003742,0.001941,0.012302,0.002428,0.01346,0.02966,10.820036,359.982727,20,38.934594,-77.043963,65,-1,-1,58.020481
541376569.1,0.026245,-0.08371,-0.981186,0.029827,0.084549,0.049354,0.029716,-0.084449,-0.995985,-0.003471,0.000739,0.014799,0.004581,0.008154,0.02967,10.780273,359.942963,20,38.934594,-77.043963,65,-1,-1,58.020481
541376569.1,0.028412,-0.085114,-0.97934,0.02974,0.084593,0.049604,0.029629,-0.084492,-0.995984,-0.001217,-0.000621,0.016644,0.003588,-0.007811,0.024322,10.780273,359.942963,20,38.934594,-77.043963,65,-1,-1,58.020481
541376569.1,0.02771,-0.086456,-0.978317,0.029541,0.084548,0.049781,0.029432,-0.084447,-0.995993,-0.001722,-0.002009,0.017676,-0.004883,-0.018502,0.015735,10.743574,359.906281,20,38.934594,-77.043963,65,-1,-1,58.020481
541376569.1,0.027222,-0.088135,-0.981094,0.029284,0.084357,0.049869,0.029176,-0.084257,-0.996017,-0.001954,-0.003877,0.014922,-0.022977,-0.024992,0.006034,10.743574,359.906281,20,38.934594,-77.043963,65,-1,-1,58.020481
541376569.1,0.026581,-0.088684,-0.983627,0.028998,0.084006,0.049875,0.028892,-0.083907,-0.996055,-0.002311,-0.004777,0.012427,-0.036818,-0.028266,-0.001509,10.743574,359.906281,20,38.934594,-77.043963,65,-1,-1,58.020481
541376569.1,0.026932,-0.086792,-0.985764,0.028712,0.08356,0.049857,0.028608,-0.083463,-0.9961,-0.001676,-0.003329,0.010337,-0.047501,-0.02726,-0.00263,10.736149,359.898865,20,38.934594,-77.043963,65,-1,-1,58.020481
541376569.1,0.028214,-0.082352,-0.986877,0.028445,0.08306,0.049867,0.028343,-0.082965,-0.996149,-0.00013,0.000613,0.009272,-0.050738,-0.02408,0.001625,10.736149,359.898865,20,38.934594,-77.043963,65,-1,-1,58.020481
541376569.1,0.029312,-0.080154,-0.990479,0.028193,0.08259,0.049962,0.028093,-0.082496,-0.996195,0.001219,0.002342,0.005717,-0.046512,-0.022982,0.010188,10.736149,359.898865,20,38.934594,-77.043963,65,-1,-1,58.020481
541376569.1,0.030899,-0.079803,-0.994644,0.027974,0.08221,0.050136,0.027876,-0.082117,-0.996233,0.003023,0.002314,0.001589,-0.038016,-0.018672,0.017706,10.726797,359.889496,20,38.934594,-77.043963,65,-1,-1,58.020481
541376569.1,0.031845,-0.079193,-0.996918,0.027871,0.081957,0.050354,0.027774,-0.081866,-0.996256,0.004071,0.002673,-0.000661,-0.024181,-0.005834,0.020981,10.726797,359.889496,20,38.934594,-77.043963,65,-1,-1,58.020481
541376569.2,0.029449,-0.07724,-0.996353,0.027912,0.081811,0.050608,0.027815,-0.08172,-0.996267,0.001635,0.00448,-0.000086,-0.016769,0.009099,0.025293,10.696849,359.859558,20,38.934594,-77.043963,65,-1,-1,58.020481
541376569.2,0.030899,-0.077271,-0.997589,0.027993,0.081705,0.05091,0.027896,-0.081615,-0.996273,0.003003,0.004344,-0.001316,-0.013604,0.011252,0.031715,10.696849,359.859558,20,38.934594,-77.043963,65,-1,-1,58.020481
541376569.2,0.031143,-0.079697,-0.996628,0.027983,0.081667,0.051259,0.027886,-0.081576,-0.996277,0.003257,0.00188,-0.000351,-0.007177,-0.001469,0.036015,10.696849,359.859558,20,38.934594,-77.043963,65,-1,-1,58.020481
541376569.2,0.030548,-0.081375,-0.992416,0.027866,0.081694,0.051628,0.027769,-0.081604,-0.996278,0.002779,0.000228,0.003862,0.00139,-0.00993,0.037123,10.65,359.812714,20,38.934594,-77.043963,65,-1,-1,58.020481
541376569.2,0.030487,-0.080475,-0.989029,0.027671,0.081774,0.051989,0.027575,-0.081683,-0.996277,0.002912,0.001208,0.007248,0.007832,-0.018405,0.036085,10.65,359.812714,20,38.934594,-77.043963,65,-1,-1,58.020481
541376569.2,0.027924,-0.080688,-0.987564,0.027424,0.081868,0.052354,0.027329,-0.081777,-0.996276,0.000595,0.001088,0.008712,0.008911,-0.023715,0.037157,10.598388,359.761078,20,38.934594,-77.043963,65,-1,-1,58.020481
541376569.2,0.0271,-0.081146,-0.989151,0.02717,0.08191,0.052693,0.027076,-0.081818,-0.996279,0.000024,0.000672,0.007128,0.001451,-0.022697,0.032849,10.598388,359.761078,20,38.934594,-77.043963,65,-1,-1,58.020481
541376569.2,0.026825,-0.080917,-0.991852,0.026994,0.081791,0.052992,0.0269,-0.0817,-0.996294,-0.000075,0.000783,0.004442,-0.016713,-0.015354,0.02849,10.598388,359.761078,20,38.934594,-77.043963,65,-1,-1,58.020481
541376569.2,0.027405,-0.080811,-0.995636,0.026912,0.081496,0.053231,0.026819,-0.081406,-0.99632,0.000586,0.000596,0.000684,-0.030604,-0.003739,0.022017,10.547635,359.710327,20,38.934594,-77.043963,65,-1,-1,58.020481
541376569.2,0.028793,-0.080383,-0.996857,0.026936,0.081138,0.053422,0.026844,-0.081049,-0.996349,0.001949,0.000666,-0.000508,-0.034878,0.003676,0.017727,10.547635,359.710327,20,38.934594,-77.043963,65,-1,-1,58.020481
541376569.3,0.029282,-0.080307,-0.997086,0.027018,0.080858,0.053645,0.026926,-0.08077,-0.996369,0.002355,0.000463,-0.000717,-0.025311,0.009053,0.024182,10.512385,359.675079,20,38.934594,-77.043963,65,-1,-1,58.020481
541376569.3,0.027298,-0.079498,-0.996902,0.027081,0.080767,0.053944,0.026989,-0.080679,-0.996375,0.000309,0.001181,-0.000528,-0.005037,0.004917,0.031756,10.512385,359.675079,20,38.934594,-77.043963,65,-1,-1,58.020481
541376569.3,0.027863,-0.077972,-0.996719,0.027003,0.08111,0.054553,0.026911,-0.081021,-0.996349,0.000113,0.00224,-0.001698,0.033396,-0.00656,0.044757,10.512385,359.675079,20,38.934594,-77.043963,65,-1,-1,58.020481
541376569.3,0.027863,-0.077972,-0.996719,0.026946,0.081346,0.054785,0.026854,-0.081257,-0.996331,0.001009,0.003284,-0.000388,0.045144,-0.008622,0.04695,10.458034,359.620728,20,38.934594,-77.043963,65,-1,-1,58.020481
541376569.3,0.026718,-0.0784,-0.992432,0.026806,0.081807,0.055276,0.026713,-0.081716,-0.996298,0.000005,0.003316,0.003866,0.042993,-0.009692,0.050142,10.458034,359.620728,20,38.934594,-77.043963,65,-1,-1,58.020481
541376569.3,0.02597,-0.082291,-0.989716,0.026655,0.082174,0.055755,0.026561,-0.082081,-0.996272,-0.000591,-0.000209,0.006556,0.033392,-0.010809,0.047959,10.38712,359.549835,20,38.934594,-77.043963,65,-1,-1,58.020481
541376569.3,0.026443,-0.084778,-0.98703,0.026506,0.082374,0.056151,0.026413,-0.082281,-0.996259,0.00003,-0.002497,0.009229,0.014218,-0.011989,0.037186,10.38712,359.549835,20,38.934594,-77.043963,65,-1,-1,58.020481
541376569.3,0.02507,-0.08429,-0.985352,0.026397,0.082371,0.056465,0.026304,-0.082278,-0.996262,-0.001234,-0.002011,0.010911,-0.004988,-0.007847,0.029618,10.38712,359.549835,20,38.934594,-77.043963,65,-1,-1,58.020481
541376569.3,0.021606,-0.084763,-0.98555,0.02634,0.082256,0.056742,0.026248,-0.082163,-0.996273,-0.004642,-0.0026,0.010723,-0.012463,-0.003638,0.026378,10.330623,359.493317,20,38.934594,-77.043963,65,-1,-1,58.020481
541376569.3,0.019745,-0.08522,-0.984268,0.026363,0.082163,0.056994,0.026271,-0.08207,-0.99628,-0.006526,-0.00315,0.012012,-0.008209,0.00489,0.025334,10.330623,359.493317,20,38.934594,-77.043963,65,-1,-1,58.020481
541376569.4,0.019913,-0.083954,-0.983459,0.026407,0.082092,0.057218,0.026315,-0.082,-0.996285,-0.006402,-0.001954,0.012825,-0.004984,0.005964,0.02108,10.293534,359.456238,20,38.934594,-77.043963,65,-1,-1,58.020481
541376569.4,0.020828,-0.084106,-0.985458,0.026406,0.082051,0.057393,0.026314,-0.081959,-0.996288,-0.005486,-0.002148,0.01083,-0.001734,-0.001469,0.016823,10.293534,359.456238,20,38.934594,-77.043963,65,-1,-1,58.020481
541376569.4,0.022278,-0.085358,-0.986374,0.026356,0.082066,0.057524,0.026265,-0.081974,-0.996288,-0.003987,-0.003384,0.009914,0.00364,-0.004638,0.012579,10.293534,359.456238,20,38.934594,-77.043963,65,-1,-1,58.020481
541376569.4,0.0242,-0.08551,-0.982895,0.026295,0.082168,0.057643,0.026203,-0.082076,-0.996282,-0.002002,-0.003435,0.013387,0.011122,-0.005662,0.012616,10.269152,359.431854,20,38.934594,-77.043963,65,-1,-1,58.020481
541376569.4,0.023376,-0.084259,-0.979996,0.026232,0.082347,0.057804,0.02614,-0.082254,-0.996269,-0.002764,-0.002005,0.016273,0.017511,-0.005622,0.016918,10.269152,359.431854,20,38.934594,-77.043963,65,-1,-1,58.020481
541376569.4,0.023285,-0.082794,-0.978546,0.026135,0.082509,0.058003,0.026043,-0.082415,-0.996258,-0.002758,-0.000379,0.017712,0.01323,-0.00883,0.020099,10.244823,359.407532,20,38.934594,-77.043963,65,-1,-1,58.020481
541376569.4,0.024704,-0.081726,-0.977539,0.025986,0.082558,0.058189,0.025894,-0.082464,-0.996258,-0.00119,0.000738,0.018718,-0.000636,-0.01316,0.017893,10.244823,359.407532,20,38.934594,-77.043963,65,-1,-1,58.020481
541376569.4,0.024078,-0.081833,-0.979492,0.025779,0.082422,0.058342,0.025688,-0.082329,-0.996274,-0.00161,0.000496,0.016782,-0.020905,-0.016463,0.013521,10.244823,359.407532,20,38.934594,-77.043963,65,-1,-1,58.020481
541376569.4,0.022491,-0.082245,-0.98262,0.025662,0.082141,0.058449,0.025572,-0.082049,-0.9963,-0.003081,-0.000196,0.01368,-0.03159,-0.006956,0.008132,10.221603,359.384308,20,38.934594,-77.043963,65,-1,-1,58.020481
541376569.4,0.024017,-0.082352,-0.984787,0.025607,0.081859,0.058503,0.025518,-0.081768,-0.996325,-0.001501,-0.000584,0.011538,-0.027301,-0.002688,0.002816,10.221603,359.384308,20,38.934594,-77.043963,65,-1,-1,58.020481
541376569.5,0.026077,-0.080933,-0.98642,0.025585,0.081701,0.058559,0.025497,-0.081611,-0.996338,0.00058,0.000678,0.009918,-0.013435,-0.000484,0.006088,10.214232,359.376923,20,38.934594,-77.043963,65,-1,-1,58.020481
541376569.5,0.027039,-0.077286,-0.985291,0.02552,0.081692,0.058681,0.025432,-0.081601,-0.996341,0.001607,0.004315,0.01105,-0.00063,-0.007849,0.013624,10.214232,359.376923,20,38.934594,-77.043963,65,-1,-1,58.020481
541376569.5,0.026794,-0.074509,-0.984879,0.025377,0.081754,0.05886,0.02529,-0.081663,-0.996339,0.001505,0.007154,0.011461,0.004701,-0.01313,0.018988,10.214232,359.376923,20,38.934594,-77.043963,65,-1,-1,58.020481
541376569.5,0.027664,-0.075485,-0.98616,0.025169,0.081779,0.059068,0.025083,-0.081688,-0.996342,0.002582,0.006203,0.010182,-0.000634,-0.019535,0.021095,10.192224,359.354919,20,38.934594,-77.043963,65,-1,-1,58.020481
541376569.5,0.026505,-0.077148,-0.987259,0.024998,0.081709,0.059298,0.024912,-0.081618,-0.996352,0.001593,0.00447,0.009093,-0.01134,-0.014273,0.022111,10.192224,359.354919,20,38.934594,-77.043963,65,-1,-1,58.020481
541376569.5,0.024124,-0.078857,-0.988525,0.024926,0.081548,0.059508,0.024841,-0.081458,-0.996367,-0.000717,0.002601,0.007842,-0.017775,-0.002612,0.019946,10.162006,359.324707,20,38.934594,-77.043963,65,-1,-1,58.020481
541376569.5,0.023468,-0.080505,-0.985977,0.024944,0.08141,0.059724,0.024859,-0.08132,-0.996378,-0.001391,0.000814,0.010401,-0.0146,0.005914,0.021032,10.162006,359.324707,20,38.934594,-77.043963,65,-1,-1,58.020481
541376569.5,0.024597,-0.077545,-0.983704,0.024939,0.081303,0.059907,0.024854,-0.081213,-0.996387,-0.000257,0.003668,0.012683,-0.011354,-0.000456,0.016776,10.162006,359.324707,20,38.934594,-77.043963,65,-1,-1,58.020481
541376569.5,0.024796,-0.074661,-0.983917,0.024916,0.081222,0.060067,0.024832,-0.081133,-0.996394,-0.000036,0.006471,0.012477,-0.008136,-0.002568,0.015723,10.13283,359.295532,20,38.934594,-77.043963,65,-1,-1,58.020481
541376569.5,0.024597,-0.078293,-0.981598,0.024848,0.081144,0.060248,0.024764,-0.081055,-0.996402,-0.000166,0.002762,0.014804,-0.00706,-0.00894,0.017862,10.13283,359.295532,20,38.934594,-77.043963,65,-1,-1,58.020481
541376569.6,0.025299,-0.079498,-0.98175,0.024728,0.08104,0.060407,0.024644,-0.080951,-0.996413,0.000655,0.001453,0.014663,-0.010236,-0.013215,0.014642,10.107777,359.270477,20,38.934594,-77.043963,65,-1,-1,58.020481
541376569.6,0.024704,-0.07843,-0.983414,0.024582,0.080896,0.06053,0.024499,-0.080808,-0.996429,0.000205,0.002378,0.013015,-0.014486,-0.015369,0.011418,10.107777,359.270477,20,38.934594,-77.043963,65,-1,-1,58.020481
541376569.6,0.023453,-0.079407,-0.982758,0.024485,0.080758,0.060653,0.024403,-0.080671,-0.996442,-0.00095,0.001264,0.013684,-0.012372,-0.007914,0.01143,10.107777,359.270477,20,38.934594,-77.043963,65,-1,-1,58.020481
541376569.6,0.022522,-0.080887,-0.979279,0.024454,0.080692,0.06078,0.024372,-0.080604,-0.996448,-0.00185,-0.000283,0.01717,-0.00492,-0.000429,0.012537,10.086804,359.249512,20,38.934594,-77.043963,65,-1,-1,58.020481
541376569.6,0.023956,-0.080032,-0.976288,0.024471,0.080621,0.060887,0.024389,-0.080534,-0.996453,-0.000433,0.000502,0.020166,-0.008131,0.004868,0.010387,10.086804,359.249512,20,38.934594,-77.043963,65,-1,-1,58.020481
541376569.6,0.025192,-0.08165,-0.975067,0.024559,0.08045,0.061016,0.024477,-0.080363,-0.996465,0.000716,-0.001287,0.021398,-0.019922,0.01013,0.0146,10.065267,359.227966,20,38.934594,-77.043963,65,-1,-1,58.020481
541376569.6,0.02478,-0.082703,-0.9758,0.024605,0.080178,0.061191,0.024524,-0.080092,-0.996486,0.000256,-0.002611,0.020686,-0.027396,0.004777,0.016697,10.065267,359.227966,20,38.934594,-77.043963,65,-1,-1,58.020481
541376569.6,0.023575,-0.077621,-0.975693,0.024573,0.079837,0.061405,0.024493,-0.079752,-0.996514,-0.000918,0.00213,0.020821,-0.035946,-0.003767,0.021991,10.065267,359.227966,20,38.934594,-77.043963,65,-1,-1,58.020481
